name;state_name;country_name;latitude;longitude
Beijing;Beijing;China;39.9075;116.39723
Chennai;Tamil Nadu;India;13.08784;80.27847
Busan;Busan;South Korea;35.10168;129.03004
Jeonju;North Jeolla Province;South Korea;35.82194;127.14889
Semarang;Jawa Tengah;Indonesia;-6.99306;110.42083
Dongguan;Guangdong;China;23.01797;113.74866
Konin;Greater Poland Voivodeship;Poland;52.22338;18.25121
London;England;United Kingdom;51.50853;-0.12574
Glasgow;Scotland;United Kingdom;55.86515;-4.25763
Tehran;Tehran Province;Iran;35.69439;51.42151
Qinhuangdao;Hebei;China;39.93167;119.58833
Boulder;Colorado;United States;40.01499;-105.27055
Boulder;Montana;United States;46.23659;-112.12083
Beijing;Beijing;China;39.9075;116.39723
Aalborg;North Denmark Region;Denmark;57.048;9.9187
Toledo;Illinois;United States;39.27365;-88.24365
Toledo;Iowa;United States;41.99555;-92.57686
Toledo;Ohio;United States;41.66394;-83.55521
Toledo;Oregon;United States;44.62151;-123.93845
Nanning;Guangxi Zhuang;China;22.81667;108.31667
Petaling Jaya;Selangor;Malaysia;3.10726;101.60671
Beijing;Beijing;China;39.9075;116.39723
Weihai;Shandong;China;37.50914;122.11356
Athens;Attica Region;Greece;37.98376;23.72784
Indianapolis;Indiana;United States;39.76838;-86.15804
Brisbane;Queensland;Australia;-27.46794;153.02809
Brisbane;Queensland;Australia;-27.46794;153.02809
Los Angeles;California;United States;34.05223;-118.24368
Melbourne;Victoria;Australia;-37.814;144.96332
La Tronche;Auvergne-Rhône-Alpes;France;45.20507;5.74629
Austin;Arkansas;United States;34.99842;-91.98376
Austin;Indiana;United States;38.75839;-85.80803
Austin;Minnesota;United States;43.66663;-92.97464
Austin;Texas;United States;30.26715;-97.74306
Sydney;New South Wales;Australia;-33.86785;151.20732
Sonipat;Haryana;India;29.0;76.91667
Rajkot;Gujarat;India;22.33333;70.83333
Brussels;Brussels-Capital Region;Belgium;50.85045;4.34878
Paris;Île-de-France;France;48.8534;2.3486
Hangzhou;Zhejiang;China;30.29365;120.16142
Beijing;Beijing;China;39.9075;116.39723
Nakhon Pathom;Nakhon Pathom;Thailand;13.8196;100.04427
Jinan;Shandong;China;36.66833;116.99722
Bologna;Emilia-Romagna;Italy;44.46667;11.43333
Rome;Lazio;Italy;41.89193;12.51133
Khulna;Khulna District;Bangladesh;22.5;89.33333
Trondheim;Trøndelag;Norway;63.42811;10.39687
Toulouse;Occitanie;France;43.60426;1.44367
Ulsan;Ulsan;South Korea;35.53722;129.31667
Pasadena;California;United States;34.14778;-118.14452
Pasadena;Maryland;United States;39.10733;-76.57108
Pasadena;Texas;United States;29.69106;-95.2091
Philadelphia;Mississippi;United States;32.77152;-89.11673
Philadelphia;New York;United States;44.1545;-75.70882
Philadelphia;Pennsylvania;United States;39.95233;-75.16379
Changsha;Guizhou;China;28.68778;105.98972
Changsha;Hunan;China;28.19874;112.97087
Guangzhou;Guangdong;China;23.11667;113.25
Vilnius;Vilnius City Municipality;Lithuania;54.68916;25.2798
Shanghai;Shanghai;China;31.22222;121.45806
Shanghai;Shanghai;China;31.22222;121.45806
Aachen;North Rhine-Westphalia;Germany;50.77664;6.08342
Vancouver;British Columbia;Canada;49.24966;-123.11934
Changchun;Jilin;China;43.88;125.32278
Pasadena;California;United States;34.14778;-118.14452
Pasadena;Maryland;United States;39.10733;-76.57108
Pasadena;Texas;United States;29.69106;-95.2091
Callaghan;New South Wales;Australia;-32.89205;151.70531
Guangzhou;Guangdong;China;23.11667;113.25
Pune;Maharashtra;India;18.51957;73.85535
Langfang;Hebei;China;39.50972;116.69472
Salem;Tamil Nadu;India;11.69;78.29
Nanjing;Taiwan;China;32.06167;118.77778
Athens;Attica Region;Greece;37.98376;23.72784
Mianyang;Sichuan;China;31.46784;104.68168
Palaiseau;Île-de-France;France;48.71828;2.2498
Chicago;Illinois;United States;41.85003;-87.65005
Wuhan;Hubei;China;30.58333;114.26667
Beijing;Beijing;China;39.9075;116.39723
Beijing;Beijing;China;39.9075;116.39723
Dongguan;Guangdong;China;23.01797;113.74866
Berkeley;California;United States;37.87159;-122.27275
Berkeley;Illinois;United States;41.88892;-87.9034
Berkeley;Missouri;United States;38.7545;-90.33123
Philadelphia;Mississippi;United States;32.77152;-89.11673
Philadelphia;New York;United States;44.1545;-75.70882
Philadelphia;Pennsylvania;United States;39.95233;-75.16379
Berkeley;California;United States;37.87159;-122.27275
Berkeley;Illinois;United States;41.88892;-87.9034
Berkeley;Missouri;United States;38.7545;-90.33123
Taoyuan;Taoyuan;Taiwan;24.895;121.24611
Guangzhou;Guangdong;China;23.11667;113.25
Shanghai;Shanghai;China;31.22222;121.45806
San Antonio;Florida;United States;28.33611;-82.27453
San Antonio;Puerto Rico;United States;18.45166667;-66.94972222
San Antonio;Texas;United States;29.42412;-98.49363
Lausanne;Vaud;Switzerland;46.516;6.63282
Chengdu;Sichuan;China;30.66667;104.06667
Cuernavaca;Morelos;Mexico;18.95532;-99.24002
Bucharest;Bucharest;Romania;44.43225;26.10626
Lisbon;Guarda;Portugal;38.71666667;-9.16666667
Lisbon;Lisbon;Portugal;38.72635;-9.14843
Provo;Utah;United States;40.23384;-111.65853
Lanzhou;Gansu;China;36.05701;103.83987
Yogyakarta;DI Yogyakarta;Indonesia;-7.80139;110.36472
Almaty;Almaty;Kazakhstan;43.25667;76.92861
Beijing;Beijing;China;39.9075;116.39723
Tandag;Bulacan;Philippines;9.06666667;126.18333333
Tandag;Caraga;Philippines;9.07833;126.19861
Seoul;Seoul;South Korea;37.566;126.9784
Brownsville;Florida;United States;25.82176;-80.24116
Brownsville;Kentucky;United States;37.19255;-86.26775
Brownsville;Louisiana;United States;32.48709;-92.1543
Brownsville;New York;United States;40.66094;-73.92014
Brownsville;Oregon;United States;44.39346;-122.98481
Brownsville;Pennsylvania;United States;40.02369;-79.88394
Brownsville;Tennessee;United States;35.59397;-89.26229
Brownsville;Texas;United States;25.90175;-97.49748
Kathmandu;Central Region;Nepal;27.70169;85.3206
Kokrajhar;Assam;India;26.6;90.2
Arica;Arica y Parinacota;Chile;-18.4746;-70.29792
Beijing;Beijing;China;39.9075;116.39723
Zhengzhou;Henan;China;34.75778;113.64861
College Station;Texas;United States;30.62798;-96.33441
London;England;United Kingdom;51.50853;-0.12574
Ithaca;Michigan;United States;43.2917;-84.6075
Ithaca;New York;United States;42.44063;-76.49661
Lima;Lima;Peru;-12.04318;-77.02824
Ambato;Tungurahua;Ecuador;-1.24908;-78.61675
Zhengzhou;Henan;China;34.75778;113.64861
Barcelona;Catalonia;Spain;41.38879;2.15899
Guangzhou;Guangdong;China;23.11667;113.25
Sunderland;England;United Kingdom;54.90465;-1.38222
Madrid;Madrid;Spain;40.4165;-3.70256
Bauchi;Bauchi;Nigeria;10.31032;9.84388
Jongno-gu;Seoul;South Korea;37.5729;126.97928
Reston;Virginia;United States;38.96872;-77.3411
Baghdad;Baghdad Governorate;Iraq;33.34058;44.40088
Kumasi;Ashanti;Ghana;6.68848;-1.62443
Athens;Attica Region;Greece;37.98376;23.72784
Reggio Calabria;Calabria;Italy;38.11047;15.66129
Seoul;Seoul;South Korea;37.566;126.9784
Hangzhou;Zhejiang;China;30.29365;120.16142
Shanghai;Shanghai;China;31.22222;121.45806
Chengdu;Sichuan;China;30.66667;104.06667
Sydney;New South Wales;Australia;-33.86785;151.20732
Killybegs;Ulster;Ireland;54.63333;-8.45
Zhengzhou;Henan;China;34.75778;113.64861
Fuzhou;Fujian;China;26.06139;119.30611
Callao;Callao;Peru;-12.05659;-77.11814
Beijing;Beijing;China;39.9075;116.39723
Zhuhai;Guangdong;China;22.27694;113.56778
Aalborg;North Denmark Region;Denmark;57.048;9.9187
Brussels;Brussels-Capital Region;Belgium;50.85045;4.34878
Tianjin;Tianjin;China;39.14666667;117.20555556
Beijing;Beijing;China;39.9075;116.39723
Warsaw;Masovian Voivodeship;Poland;52.22977;21.01178
Mendaro;Basque Country;Spain;43.25326;-2.38568
Dalian;Liaoning;China;38.91222;121.60222
Hohhot;Inner Mongolia;China;40.81056;111.65222
Evanston;Illinois;United States;42.04114;-87.69006
Evanston;Wyoming;United States;41.26828;-110.96324
Lucknow;Uttar Pradesh;India;26.83928;80.92313
Shiraz;Fars Province;Iran;29.61031;52.53113
Talence;Nouvelle-Aquitaine;France;44.80477;-0.59543
Quito;Pichincha;Ecuador;-0.22985;-78.52495
Castelldefels;Catalonia;Spain;41.27794;1.97033
Toronto;Ontario;Canada;43.70011;-79.4163
Shenyang;Liaoning;China;41.79222;123.43278
Purwokerto;Jawa Tengah;Indonesia;-7.42139;109.23444
Sharjah;Sharjah Emirate;United Arab Emirates;25.33737;55.41206
Gondar;Amhara Region;Ethiopia;12.6;37.46667
Tehran;Tehran Province;Iran;35.69439;51.42151
Raleigh;Mississippi;United States;32.03349;-89.52229
Raleigh;North Carolina;United States;35.7721;-78.63861
Kunming;Yunnan;China;25.03889;102.71833
Beijing;Beijing;China;39.9075;116.39723
Nanjing;Taiwan;China;32.06167;118.77778
Islamabad;Islamabad Capital Territory;Pakistan;33.72148;73.04329
Tallinn;Harju County;Estonia;59.43696;24.75353
Miami;Arizona;United States;33.39922;-110.86872
Miami;Florida;United States;25.77427;-80.19366
Miami;Oklahoma;United States;36.87451;-94.87746
Miami;Texas;United States;35.69143;-100.63819
Getafe;Madrid;Spain;40.30571;-3.73295
Indianapolis;Indiana;United States;39.76838;-86.15804
Chengdu;Sichuan;China;30.66667;104.06667
Tlaquepaque;Jalisco;Mexico;20.65;-103.31666667
Tianjin;Tianjin;China;39.14666667;117.20555556
Boca Raton;Florida;United States;26.35869;-80.0831
Guiyang;Guizhou;China;26.58333;106.71667
Burlington;Colorado;United States;39.30611;-102.26936
Burlington;Iowa;United States;40.80754;-91.11292
Burlington;Kansas;United States;38.19447;-95.74276
Burlington;Kentucky;United States;39.02756;-84.72411
Burlington;Massachusetts;United States;42.50482;-71.19561
Burlington;New Jersey;United States;40.07122;-74.86489
Burlington;North Carolina;United States;36.09569;-79.4378
Burlington;North Dakota;United States;48.27529;-101.42878
Burlington;Ohio;United States;38.4073;-82.53571
Burlington;Vermont;United States;44.47588;-73.21207
Burlington;Washington;United States;48.47566;-122.32544
Burlington;Wisconsin;United States;42.67807;-88.2762
Shanghai;Shanghai;China;31.22222;121.45806
Columbia;California;United States;38.03631;-120.40131
Columbia;Illinois;United States;38.44366;-90.20122
Columbia;Kentucky;United States;37.10284;-85.30635
Columbia;Louisiana;United States;32.10516;-92.07791
Columbia;Maryland;United States;39.24038;-76.83942
Columbia;Mississippi;United States;31.25184;-89.83758
Columbia;Missouri;United States;38.95171;-92.33407
Columbia;North Carolina;United States;35.91766;-76.25215
Columbia;Pennsylvania;United States;40.03371;-76.50441
Columbia;South Carolina;United States;34.00071;-81.03481
Columbia;Tennessee;United States;35.61507;-87.03528
Beijing;Beijing;China;39.9075;116.39723
Chongqing;Chongqing;China;29.56278;106.55278
Minna;Niger;Nigeria;9.61524;6.54776
Beijing;Beijing;China;39.9075;116.39723
Baltimore;Maryland;United States;39.29038;-76.61219
Baltimore;Ohio;United States;39.84534;-82.60072
Hamburg;Hamburg;Germany;53.57532;10.01534
Guangzhou;Guangdong;China;23.11667;113.25
Chennai;Tamil Nadu;India;13.08784;80.27847
Chía;Cundinamarca;Colombia;4.84452;-74.05848
Beijing;Beijing;China;39.9075;116.39723
Tokyo;Tokyo;Japan;35.6895;139.69171
Tempe;Arizona;United States;33.41477;-111.90931
Kyoto;Kyōto Prefecture;Japan;35.02107;135.75385
Berkeley;California;United States;37.87159;-122.27275
Berkeley;Illinois;United States;41.88892;-87.9034
Berkeley;Missouri;United States;38.7545;-90.33123
London;England;United Kingdom;51.50853;-0.12574
Vila Velha;Espírito Santo;Brazil;-20.32972;-40.2925
Toowoomba;Queensland;Australia;-27.47958;151.47705
Nanjing;Taiwan;China;32.06167;118.77778
La Jolla;California;United States;32.84727;-117.2742
Sydney;New South Wales;Australia;-33.86785;151.20732
Ulsan;Ulsan;South Korea;35.53722;129.31667
Coquimbo;Coquimbo;Chile;-29.95332;-71.33947
Santa Cruz;California;United States;36.97412;-122.0308
Jeonju;North Jeolla Province;South Korea;35.82194;127.14889
Bloomington;California;United States;34.07029;-117.39588
Bloomington;Illinois;United States;40.4842;-88.99369
Bloomington;Indiana;United States;39.16533;-86.52639
Bloomington;Minnesota;United States;44.8408;-93.29828
Bloomington;Texas;United States;28.64777;-96.89249
Seattle;Washington;United States;47.60621;-122.33207
Urbana;Illinois;United States;40.11059;-88.20727
Urbana;Iowa;United States;42.22416;-91.87434
Urbana;Maryland;United States;39.32594;-77.35137
Urbana;Ohio;United States;40.10839;-83.75243
Hohhot;Inner Mongolia;China;40.81056;111.65222
Bern;Bern;Switzerland;46.94809;7.44744
Jammu;Jammu and Kashmir;India;32.75;74.83333
Huangshan;Anhui;China;29.71139;118.3125
Tuscaloosa;Alabama;United States;33.20984;-87.56917
Brussels;Brussels-Capital Region;Belgium;50.85045;4.34878
Manchester;England;United Kingdom;53.41667;-2.25
Beijing;Beijing;China;39.9075;116.39723
Lancaster;England;United Kingdom;54.04649;-2.79988
Jiaozuo;Henan;China;35.23972;113.23306
Yantai;Shandong;China;37.47649;121.44081
Iwaki;Fukushima Prefecture;Japan;37.05;140.88333
Guangzhou;Guangdong;China;23.11667;113.25
Shenyang;Liaoning;China;41.79222;123.43278
Fuzhou;Fujian;China;26.06139;119.30611
Vienna;Vienna;Austria;48.20849;16.37208
Nanjing;Taiwan;China;32.06167;118.77778
Seoul;Seoul;South Korea;37.566;126.9784
Dalian;Liaoning;China;38.91222;121.60222
Melbourne;Victoria;Australia;-37.814;144.96332
Huangshi;Hubei;China;30.24706;115.04814
Puno;Puno;Peru;-15.8422;-70.0199
Charlottesville;Virginia;United States;38.02931;-78.47668
Tokyo;Tokyo;Japan;35.6895;139.69171
Beijing;Beijing;China;39.9075;116.39723
Dresden;Saxony;Germany;51.05089;13.73832
Munich;Bavaria;Germany;48.13743;11.57549
New Delhi;Delhi;India;28.63576;77.22445
Cairo;Cairo;Egypt;30.06263;31.24967
Dire Dawa;Dire Dawa;Ethiopia;9.59306;41.86611
Asaba;Delta;Nigeria;6.19824;6.73187
Alicante;Valencia;Spain;38.34517;-0.48149
Bahir Dar;Amhara Region;Ethiopia;11.59364;37.39077
Changsha;Guizhou;China;28.68778;105.98972
Changsha;Hunan;China;28.19874;112.97087
Seoul;Seoul;South Korea;37.566;126.9784
Dalian;Liaoning;China;38.91222;121.60222
Chongqing;Chongqing;China;29.56278;106.55278
Baie-Comeau;Quebec;Canada;49.21679;-68.14894
Changsha;Guizhou;China;28.68778;105.98972
Changsha;Hunan;China;28.19874;112.97087
Chennai;Tamil Nadu;India;13.08784;80.27847
Changde;Hunan;China;29.04638;111.6783
Wuhan;Hubei;China;30.58333;114.26667
Beijing;Beijing;China;39.9075;116.39723
Bologna;Emilia-Romagna;Italy;44.46667;11.43333
Dublin;Leinster;Ireland;53.33306;-6.24889
Quanzhou;Fujian;China;24.91389;118.58583
Tehran;Tehran Province;Iran;35.69439;51.42151
Chongqing;Chongqing;China;29.56278;106.55278
Beijing;Beijing;China;39.9075;116.39723
Nanjing;Taiwan;China;32.06167;118.77778
Nanjing;Taiwan;China;32.06167;118.77778
Dhaka;Dhaka District;Bangladesh;23.81093;90.36542
Vellore;Tamil Nadu;India;12.86;79.035
Tokyo;Tokyo;Japan;35.6895;139.69171
Chiang Mai;Chiang Mai;Thailand;18.79038;98.98468
Barranquilla;Atlántico;Colombia;10.96854;-74.78132
Shanghai;Shanghai;China;31.22222;121.45806
Bengaluru;Karnataka;India;12.97194;77.59369
Ankara;Ankara;Turkey;39.91987;32.85427
Changsha;Guizhou;China;28.68778;105.98972
Changsha;Hunan;China;28.19874;112.97087
Dalian;Liaoning;China;38.91222;121.60222
Nairobi;Nairobi City;Kenya;-1.28333;36.81667
Tetouan;Tanger-Tétouan-Al Hoceïma;Morocco;35.58333;-5.5
Dhaka;Dhaka District;Bangladesh;23.81093;90.36542
Tehran;Tehran Province;Iran;35.69439;51.42151
Ahar;East Azerbaijan Province;Iran;38.4774;47.0699
Nanjing;Taiwan;China;32.06167;118.77778
Daejeon;Daejeon;South Korea;36.34913;127.38493
Tamale;Northern;Ghana;9.40079;-0.8393
Jonesboro;Arkansas;United States;35.8423;-90.70428
Jonesboro;Georgia;United States;33.5215;-84.35381
Jonesboro;Illinois;United States;37.45172;-89.26814
Jonesboro;Indiana;United States;40.47976;-85.62775
Jonesboro;Louisiana;United States;32.24127;-92.71599
Toronto;Ontario;Canada;43.70011;-79.4163
Shanghai;Shanghai;China;31.22222;121.45806
Depok;DI Yogyakarta;Indonesia;-7.7625;110.43167
Depok;Jawa Barat;Indonesia;-6.4;106.81861
Kigali;Kigali district;Rwanda;-1.94995;30.05885
Jiangmen;Guangdong;China;22.58333;113.08333
Athens;Attica Region;Greece;37.98376;23.72784
Tuscaloosa;Alabama;United States;33.20984;-87.56917
Budapest;Budapest;Hungary;47.49835;19.04045
Stoke-on-Trent;England;United Kingdom;53.00415;-2.18538
Austin;Arkansas;United States;34.99842;-91.98376
Austin;Indiana;United States;38.75839;-85.80803
Austin;Minnesota;United States;43.66663;-92.97464
Austin;Texas;United States;30.26715;-97.74306
Exeter;England;United Kingdom;50.7236;-3.52751
Nakhon Ratchasima;Nakhon Ratchasima;Thailand;14.97066;102.10196
Austin;Arkansas;United States;34.99842;-91.98376
Austin;Indiana;United States;38.75839;-85.80803
Austin;Minnesota;United States;43.66663;-92.97464
Austin;Texas;United States;30.26715;-97.74306
Thuwal;Al Bahah;Saudi Arabia;22.28333333;39.1
Thuwal;Makkah;Saudi Arabia;22.28333333;39.1
Zhenjiang;Taiwan;China;32.21086;119.45508
Irvine;California;United States;33.66946;-117.82311
Irvine;Kentucky;United States;37.70064;-83.97381
Bengbu;Anhui;China;32.94083;117.36083
Malibu;California;United States;34.02577;-118.7804
Harbin;Heilongjiang;China;45.75;126.65
Cambridge;Illinois;United States;41.30365;-90.1929
Cambridge;Maryland;United States;38.56317;-76.07883
Cambridge;Massachusetts;United States;42.3751;-71.10561
Cambridge;Minnesota;United States;45.57274;-93.22439
Cambridge;Nebraska;United States;40.28195;-100.16569
Cambridge;New York;United States;43.02813;-73.38122
Cambridge;Ohio;United States;40.03118;-81.58846
Cambridge;Wisconsin;United States;43.00361;-89.0165
Munich;Bavaria;Germany;48.13743;11.57549
Kirkuk;Kirkuk Governorate;Iraq;35.46806;44.39222
Beijing;Beijing;China;39.9075;116.39723
Beijing;Beijing;China;39.9075;116.39723
Chongqing;Chongqing;China;29.56278;106.55278
Sari;Mazandaran Province;Iran;36.56332;53.06009
Bologna;Emilia-Romagna;Italy;44.46667;11.43333
Beijing;Beijing;China;39.9075;116.39723
Atlanta;Georgia;United States;33.749;-84.38798
Atlanta;Illinois;United States;40.25948;-89.23342
Atlanta;Michigan;United States;45.00473;-84.14389
Atlanta;Texas;United States;33.11374;-94.16435
Dubai;Dubai;United Arab Emirates;25.0657;55.17128
Groningen;Groningen;Netherlands;53.21917;6.56667
Seoul;Seoul;South Korea;37.566;126.9784
Hangzhou;Zhejiang;China;30.29365;120.16142
Berlin;Berlin;Germany;52.52437;13.41053
Beijing;Beijing;China;39.9075;116.39723
Wenzhou;Zhejiang;China;27.99942;120.66682
Abuja;Abuja Federal Capital Territory;Nigeria;9.05785;7.49508
Catanzaro;Calabria;Italy;38.88247;16.60086
Kerman;Kerman Province;Iran;30.28321;57.07879
Madrid;Madrid;Spain;40.4165;-3.70256
Rome;Lazio;Italy;41.89193;12.51133
Dhaka;Dhaka District;Bangladesh;23.81093;90.36542
Tehran;Tehran Province;Iran;35.69439;51.42151
Karlsruhe;Baden-Württemberg;Germany;49.00937;8.40444
Madrid;Madrid;Spain;40.4165;-3.70256
Shizuishan;Ningxia Huizu;China;39.23333;106.76944
Tokyo;Tokyo;Japan;35.6895;139.69171
Baramati;Maharashtra;India;18.15174;74.57767
Delft;South Holland;Netherlands;52.00667;4.35556
Tehran;Tehran Province;Iran;35.69439;51.42151
Kalmar;Kalmar County;Sweden;56.66157;16.36163
Gaborone;South-East District;Botswana;-24.76234;25.7995
Chennai;Tamil Nadu;India;13.08784;80.27847
Shanghai;Shanghai;China;31.22222;121.45806
Balad;Saladin Governorate;Iraq;34.01485;44.14574
Lausanne;Vaud;Switzerland;46.516;6.63282
Shiraz;Fars Province;Iran;29.61031;52.53113
Baltimore;Maryland;United States;39.29038;-76.61219
Baltimore;Ohio;United States;39.84534;-82.60072
Dhaka;Dhaka District;Bangladesh;23.81093;90.36542
Chittoor;Andhra Pradesh;India;13.41667;79.0
Beijing;Beijing;China;39.9075;116.39723
Bayombong;Agusan del Norte;Philippines;16.48333333;121.15
Bayombong;Cagayan Valley;Philippines;16.4812;121.1497
Wuhan;Hubei;China;30.58333;114.26667
Vadodara;Gujarat;India;22.29941;73.20812
Cambridge;England;United Kingdom;52.2;0.11667
Qazvin;Qazvin Province;Iran;36.26877;50.0041
Aligarh;Uttar Pradesh;India;27.83333;78.16667
Hamburg;Hamburg;Germany;53.57532;10.01534
Nanchang;Jiangxi;China;28.68396;115.85306
Miami;Arizona;United States;33.39922;-110.86872
Miami;Florida;United States;25.77427;-80.19366
Miami;Oklahoma;United States;36.87451;-94.87746
Miami;Texas;United States;35.69143;-100.63819
Bolzano;Trentino-South Tyrol;Italy;46.71667;11.5
Manhattan;Illinois;United States;41.42253;-87.98589
Manhattan;Kansas;United States;39.18361;-96.57167
Manhattan;Montana;United States;45.8566;-111.33246
Manhattan;New York;United States;40.78343;-73.96625
Wuhan;Hubei;China;30.58333;114.26667
Rio de Janeiro;Rio de Janeiro;Brazil;-22.92008;-43.33069
Fairfax;California;United States;37.98715;-122.58887
Fairfax;Iowa;United States;41.91945;-91.78101
Fairfax;Minnesota;United States;44.52913;-94.72082
Fairfax;Ohio;United States;39.14534;-84.39327
Fairfax;Oklahoma;United States;36.57366;-96.7042
Fairfax;South Carolina;United States;32.95905;-81.2365
Fairfax;Virginia;United States;38.84622;-77.30637
Birmingham;England;United Kingdom;52.48142;-1.89983
Kent;Connecticut;United States;41.72482;-73.47707
Kent;Ohio;United States;41.15367;-81.35789
Kent;Washington;United States;47.38093;-122.23484
Pune;Maharashtra;India;18.51957;73.85535
Silchar;Assam;India;24.82733;92.79787
Indore;Madhya Pradesh;India;22.66667;75.75
Madrid;Madrid;Spain;40.4165;-3.70256
Mataram;Nusa Tenggara Barat;Indonesia;-8.58333;116.11667
Bangkok;Bangkok;Thailand;13.75398;100.50144
Braga;Braga;Portugal;41.55032;-8.42005
Seoul;Seoul;South Korea;37.566;126.9784
Seoul;Seoul;South Korea;37.566;126.9784
Shenzhen;Guangdong;China;22.55653;113.9859
Pune;Maharashtra;India;18.51957;73.85535
Tianjin;Tianjin;China;39.14666667;117.20555556
Pavia;Lombardy;Italy;45.19205;9.15917
Gainesville;Florida;United States;29.65163;-82.32483
Gainesville;Georgia;United States;34.29788;-83.82407
Gainesville;Missouri;United States;36.60312;-92.42822
Gainesville;Texas;United States;33.62594;-97.13335
Gainesville;Virginia;United States;38.79567;-77.61388
Shanghai;Shanghai;China;31.22222;121.45806
Wuhan;Hubei;China;30.58333;114.26667
Beijing;Beijing;China;39.9075;116.39723
Naples;Campania;Italy;40.85216;14.26811
Lanzhou;Gansu;China;36.05701;103.83987
Raleigh;Mississippi;United States;32.03349;-89.52229
Raleigh;North Carolina;United States;35.7721;-78.63861
Ahmedabad;Gujarat;India;23.02579;72.58727
Beijing;Beijing;China;39.9075;116.39723
Belo Horizonte;Minas Gerais;Brazil;-19.92083;-43.93778
Atlanta;Georgia;United States;33.749;-84.38798
Atlanta;Illinois;United States;40.25948;-89.23342
Atlanta;Michigan;United States;45.00473;-84.14389
Atlanta;Texas;United States;33.11374;-94.16435
Wageningen;Gelderland;Netherlands;51.97;5.66667
Beijing;Beijing;China;39.9075;116.39723
Stanford;California;United States;37.42411;-122.16608
Stanford;Kentucky;United States;37.53119;-84.66189
Stanford;Montana;United States;47.15358;-110.21826
Busan;Busan;South Korea;35.10168;129.03004
Pavia;Lombardy;Italy;45.19205;9.15917
Pucallpa;Ucayali;Peru;-8.37915;-74.55387
Kyoto;Kyōto Prefecture;Japan;35.02107;135.75385
Shah Alam;Selangor;Malaysia;3.08507;101.53281
Washington, D.C.;District of Columbia;United States;38.89511;-77.03637
Foggia;Apulia;Italy;41.45845;15.55188
Xiamen;Fujian;China;24.47979;118.08187
Lisbon;Guarda;Portugal;38.71666667;-9.16666667
Lisbon;Lisbon;Portugal;38.72635;-9.14843
Hamadan;Hamadan Province;Iran;34.8;48.51666667
Nanjing;Taiwan;China;32.06167;118.77778
Vancouver;British Columbia;Canada;49.24966;-123.11934
Lviv;Lviv Oblast;Ukraine;49.83826;24.02324
Valencia;Valencia;Spain;39.46975;-0.37739
Bengaluru;Karnataka;India;12.97194;77.59369
Austin;Arkansas;United States;34.99842;-91.98376
Austin;Indiana;United States;38.75839;-85.80803
Austin;Minnesota;United States;43.66663;-92.97464
Austin;Texas;United States;30.26715;-97.74306
Kurukshetra;Haryana;India;30.0;76.75
Navi Mumbai;Maharashtra;India;19.03681;73.01582
Naples;Campania;Italy;40.85216;14.26811
Lanzhou;Gansu;China;36.05701;103.83987
Rome;Lazio;Italy;41.89193;12.51133
Yantai;Shandong;China;37.47649;121.44081
Roorkee;Uttarakhand;India;29.86632;77.89118
Shanghai;Shanghai;China;31.22222;121.45806
Brussels;Brussels-Capital Region;Belgium;50.85045;4.34878
Nanjing;Taiwan;China;32.06167;118.77778
Columbus;Georgia;United States;32.46098;-84.98771
Columbus;Indiana;United States;39.20144;-85.92138
Columbus;Kansas;United States;37.16923;-94.84412
Columbus;Minnesota;United States;45.26522;-93.05015
Columbus;Mississippi;United States;33.49567;-88.42726
Columbus;Montana;United States;45.63661;-109.25211
Columbus;Nebraska;United States;41.42973;-97.36838
Columbus;New Mexico;United States;31.8276;-107.64002
Columbus;North Carolina;United States;35.25317;-82.19706
Columbus;Ohio;United States;39.96118;-82.99879
Columbus;Texas;United States;29.70662;-96.53969
Columbus;Wisconsin;United States;43.33805;-89.01539
Ankara;Ankara;Turkey;39.91987;32.85427
Radolfzell;Baden-Württemberg;Germany;47.74194;8.97098
Sharjah;Sharjah Emirate;United Arab Emirates;25.33737;55.41206
Shanghai;Shanghai;China;31.22222;121.45806
Richardson;Texas;United States;32.94818;-96.72972
Hangzhou;Zhejiang;China;30.29365;120.16142
Gombe;Gombe;Nigeria;10.28969;11.16729
Cardiff;Wales;United Kingdom;51.48;-3.18
Hangzhou;Zhejiang;China;30.29365;120.16142
Bethesda;Maryland;United States;38.98067;-77.10026
Bethesda;Ohio;United States;40.01618;-81.0726
Visakhapatnam;Andhra Pradesh;India;17.68009;83.20161
College Station;Texas;United States;30.62798;-96.33441
Aveiro;Aveiro;Portugal;40.64427;-8.64554
Berlin;Berlin;Germany;52.52437;13.41053
Fuzhou;Fujian;China;26.06139;119.30611
Beijing;Beijing;China;39.9075;116.39723
Tehran;Tehran Province;Iran;35.69439;51.42151
Iowa City;Iowa;United States;41.66113;-91.53017
Lviv;Lviv Oblast;Ukraine;49.83826;24.02324
Seoul;Seoul;South Korea;37.566;126.9784
Birmingham;England;United Kingdom;52.48142;-1.89983
Toronto;Ontario;Canada;43.70011;-79.4163
Stockholm;Stockholm County;Sweden;59.33258;18.0649
Portland;Connecticut;United States;41.57288;-72.64065
Portland;Indiana;United States;40.43449;-84.97775
Portland;Maine;United States;43.65737;-70.2589
Portland;Michigan;United States;42.8692;-84.90305
Portland;New York;United States;42.37978;-79.46755
Portland;Oregon;United States;45.52345;-122.67621
Portland;Tennessee;United States;36.58171;-86.51638
Portland;Texas;United States;27.87725;-97.32388
Portland;Wisconsin;United States;43.76886;-90.85819
Bucharest;Bucharest;Romania;44.43225;26.10626
Kristianstad;Skåne County;Sweden;56.03129;14.15242
Pamplona;Navarra;Spain;42.81687;-1.64323
Dalian;Liaoning;China;38.91222;121.60222
Shanghai;Shanghai;China;31.22222;121.45806
Fairbanks;Alaska;United States;64.83778;-147.71639
Amsterdam;North Holland;Netherlands;52.37403;4.88969
Gangneung;Gangwon Province;South Korea;37.75266;128.87239
Dhaka;Dhaka District;Bangladesh;23.81093;90.36542
Gland;Vaud;Switzerland;46.42082;6.2701
Middlesbrough;England;United Kingdom;54.57623;-1.23483
Beijing;Beijing;China;39.9075;116.39723
Tiruchirappalli;Tamil Nadu;India;10.97;78.65
Xiamen;Fujian;China;24.47979;118.08187
Fukuoka;Fukuoka Prefecture;Japan;33.6;130.41667
London;England;United Kingdom;51.50853;-0.12574
Prague;Praha, Hlavní město;Czech Republic;50.08804;14.42076
Bangkok;Bangkok;Thailand;13.75398;100.50144
Nice;Provence-Alpes-Côte-d’Azur;France;43.70313;7.26608
Lucca;Tuscany;Italy;43.84369;10.50447
Lisbon;Guarda;Portugal;38.71666667;-9.16666667
Lisbon;Lisbon;Portugal;38.72635;-9.14843
Shanghai;Shanghai;China;31.22222;121.45806
Trondheim;Trøndelag;Norway;63.42811;10.39687
Buffalo;Iowa;United States;41.45642;-90.72347
Buffalo;Minnesota;United States;45.17191;-93.87469
Buffalo;Missouri;United States;37.64393;-93.09241
Buffalo;New York;United States;42.88645;-78.87837
Buffalo;Oklahoma;United States;36.83559;-99.6304
Buffalo;South Carolina;United States;34.72569;-81.68343
Buffalo;South Dakota;United States;45.58416;-103.54603
Buffalo;Texas;United States;31.46379;-96.05802
Buffalo;West Virginia;United States;38.61759;-81.9818
Buffalo;Wyoming;United States;44.34831;-106.69894
Los Angeles;California;United States;34.05223;-118.24368
Shanghai;Shanghai;China;31.22222;121.45806
Jinhua;Zhejiang;China;29.10678;119.64421
Jinan;Shandong;China;36.66833;116.99722
Kastamonu;Kastamonu;Turkey;41.37805;33.77528
Pekan;Pahang;Malaysia;3.4836;103.3996
Settat;Casablanca-Settat;Morocco;33.00103;-7.61662
Wuhan;Hubei;China;30.58333;114.26667
Logan;Iowa;United States;41.64305;-95.7889
Logan;Ohio;United States;39.54007;-82.4071
Logan;Utah;United States;41.73549;-111.83439
Logan;West Virginia;United States;37.84871;-81.99346
Manchester;Connecticut;United States;41.77593;-72.52148
Manchester;Georgia;United States;32.85985;-84.61993
Manchester;Iowa;United States;42.48415;-91.45543
Manchester;Kentucky;United States;37.1537;-83.76186
Manchester;Maine;United States;44.32451;-69.86033
Manchester;Maryland;United States;39.66121;-76.88498
Manchester;Michigan;United States;42.15032;-84.03772
Manchester;Missouri;United States;38.597;-90.50929
Manchester;New Hampshire;United States;42.99564;-71.45479
Manchester;New York;United States;42.96979;-77.23026
Manchester;Ohio;United States;38.68813;-83.60936
Manchester;Pennsylvania;United States;40.06315;-76.7183
Manchester;Tennessee;United States;35.48174;-86.0886
Manchester;Washington;United States;47.55566;-122.54507
Manchester;Wisconsin;United States;43.69054;-89.04845
Xiangtan;Hunan;China;27.85;112.9
Sydney;New South Wales;Australia;-33.86785;151.20732
Loughborough;England;United Kingdom;52.76667;-1.2
Beijing;Beijing;China;39.9075;116.39723
Hangzhou;Zhejiang;China;30.29365;120.16142
Changsha;Guizhou;China;28.68778;105.98972
Changsha;Hunan;China;28.19874;112.97087
Amsterdam;North Holland;Netherlands;52.37403;4.88969
Dublin;Leinster;Ireland;53.33306;-6.24889
Beijing;Beijing;China;39.9075;116.39723
Kolkata;West Bengal;India;22.54111111;88.33777778
Palaiseau;Île-de-France;France;48.71828;2.2498
Wuhan;Hubei;China;30.58333;114.26667
Redmond;Oregon;United States;44.27262;-121.17392
Redmond;Washington;United States;47.67399;-122.12151
Blacksburg;South Carolina;United States;35.12124;-81.51592
Blacksburg;Virginia;United States;37.22957;-80.41394
Harbin;Heilongjiang;China;45.75;126.65
Taipei;Taipei;Taiwan;25.04776;121.53185
Beijing;Beijing;China;39.9075;116.39723
Baghdad;Baghdad Governorate;Iraq;33.34058;44.40088
Berlin;Berlin;Germany;52.52437;13.41053
Beijing;Beijing;China;39.9075;116.39723
Hefei;Anhui;China;31.86389;117.28083
Gandhinagar;Gujarat;India;23.21667;72.68333
Stockholm;Stockholm County;Sweden;59.33258;18.0649
Lexington;Georgia;United States;33.86984;-83.11182
Lexington;Illinois;United States;40.64142;-88.7834
Lexington;Kentucky;United States;37.98869;-84.47772
Lexington;Massachusetts;United States;42.44732;-71.2245
Lexington;Michigan;United States;43.26808;-82.53076
Lexington;Minnesota;United States;45.14247;-93.16328
Lexington;Mississippi;United States;33.11318;-90.05314
Lexington;Missouri;United States;39.18473;-93.87994
Lexington;Nebraska;United States;40.78084;-99.7415
Lexington;North Carolina;United States;35.82403;-80.25338
Lexington;Ohio;United States;40.67867;-82.58239
Lexington;Oklahoma;United States;35.01479;-97.33558
Lexington;South Carolina;United States;33.98154;-81.23621
Lexington;Tennessee;United States;35.6509;-88.39338
Lexington;Texas;United States;30.4191;-97.01165
Lexington;Virginia;United States;37.78402;-79.44282
Quezon City;Metro Manila;Philippines;14.6488;121.0509
Quezon City;Metro Manila;Philippines;14.6488;121.0509
Manhica;Maputo Province;Mozambique;-25.34035;32.84234
Wuhan;Hubei;China;30.58333;114.26667
Charlottetown;Prince Edward Island;Canada;46.23899;-63.13414
Beijing;Beijing;China;39.9075;116.39723
Bhimavaram;Andhra Pradesh;India;16.54078;81.52322
Thuwal;Al Bahah;Saudi Arabia;22.28333333;39.1
Thuwal;Makkah;Saudi Arabia;22.28333333;39.1
Dalian;Liaoning;China;38.91222;121.60222
Berkeley;California;United States;37.87159;-122.27275
Berkeley;Illinois;United States;41.88892;-87.9034
Berkeley;Missouri;United States;38.7545;-90.33123
Bergen;Hordaland;Norway;60.392;5.328
Hangzhou;Zhejiang;China;30.29365;120.16142
Stanford;California;United States;37.42411;-122.16608
Stanford;Kentucky;United States;37.53119;-84.66189
Stanford;Montana;United States;47.15358;-110.21826
Rome;Lazio;Italy;41.89193;12.51133
Mandi;Himachal Pradesh;India;31.71194;76.93273
Utrecht;Utrecht;Netherlands;52.09083;5.12222
Chongqing;Chongqing;China;29.56278;106.55278
Boston;Georgia;United States;30.79186;-83.78989
Boston;Massachusetts;United States;42.35843;-71.05977
Boston;New York;United States;42.62895;-78.73753
London;England;United Kingdom;51.50853;-0.12574
Coventry;England;United Kingdom;52.40656;-1.51217
Islamabad;Islamabad Capital Territory;Pakistan;33.72148;73.04329
Charlottesville;Virginia;United States;38.02931;-78.47668
Davis;California;United States;38.54491;-121.74052
Davis;Oklahoma;United States;34.50453;-97.11946
Bologna;Emilia-Romagna;Italy;44.46667;11.43333
Zhengzhou;Henan;China;34.75778;113.64861
Wuhan;Hubei;China;30.58333;114.26667
Beijing;Beijing;China;39.9075;116.39723
Paris;Île-de-France;France;48.8534;2.3486
Suzhou;Anhui;China;33.63611;116.97889
Suzhou;Taiwan;China;31.30408;120.59538
Beijing;Beijing;China;39.9075;116.39723
Atlanta;Georgia;United States;33.749;-84.38798
Atlanta;Illinois;United States;40.25948;-89.23342
Atlanta;Michigan;United States;45.00473;-84.14389
Atlanta;Texas;United States;33.11374;-94.16435
Hangzhou;Zhejiang;China;30.29365;120.16142
Kolkata;West Bengal;India;22.54111111;88.33777778
Bengaluru;Karnataka;India;12.97194;77.59369
Doha;Doha;Qatar;25.28545;51.53096
Paris;Île-de-France;France;48.8534;2.3486
Beijing;Beijing;China;39.9075;116.39723
Uppsala;Uppsala County;Sweden;59.85882;17.63889
Shenzhen;Guangdong;China;22.55653;113.9859
Valencia;Valencia;Spain;39.46975;-0.37739
Sevilla;Andalusia;Spain;37.38283;-5.97317
Riyadh;Riyadh;Saudi Arabia;24.68773;46.72185
Nanjing;Taiwan;China;32.06167;118.77778
Huainan;Anhui;China;32.62639;116.99694
Baton Rouge;Louisiana;United States;30.44332;-91.18747
Coimbatore;Tamil Nadu;India;10.8;77.09
Wuhan;Hubei;China;30.58333;114.26667
Auckland;Auckland Region;New Zealand;-36.84853;174.76349
Changsha;Guizhou;China;28.68778;105.98972
Changsha;Hunan;China;28.19874;112.97087
Olympia;Washington;United States;47.03787;-122.9007
Lancaster;England;United Kingdom;54.04649;-2.79988
Siena;Tuscany;Italy;43.31822;11.33064
Furtwangen;Baden-Württemberg;Germany;48.05156;8.20715
Auckland;Auckland Region;New Zealand;-36.84853;174.76349
Weihai;Shandong;China;37.50914;122.11356
Hangzhou;Zhejiang;China;30.29365;120.16142
Lahore;Punjab;Pakistan;31.558;74.35071
Ust-Kamenogorsk;East Kazakhstan Region;Kazakhstan;49.97143;82.60586
Ithaca;Michigan;United States;43.2917;-84.6075
Ithaca;New York;United States;42.44063;-76.49661
University Park;Florida;United States;25.74649;-80.36755
University Park;Illinois;United States;41.44298;-87.6836
University Park;Maryland;United States;38.97039;-76.94192
University Park;New Mexico;United States;32.28343;-106.75334
University Park;Texas;United States;32.85013;-96.80028
Mechelen;Flanders;Belgium;51.02574;4.47762
Luoyang;Fujian;China;24.95938;118.683
Luoyang;Guangdong;China;23.16244;114.27342
Luoyang;Henan;China;34.68361;112.45361
Fuzhou;Fujian;China;26.06139;119.30611
Kaiserslautern;Rhineland-Palatinate;Germany;49.443;7.77161
Washington, D.C.;District of Columbia;United States;38.89511;-77.03637
Ghaziabad;Uttar Pradesh;India;28.66535;77.43915
Gafsa;Gafsa Governorate;Tunisia;34.425;8.78417
Dhaka;Dhaka District;Bangladesh;23.81093;90.36542
Quito;Pichincha;Ecuador;-0.22985;-78.52495
Pohang;North Gyeongsang Province;South Korea;36.02917;129.36481
Rio de Janeiro;Rio de Janeiro;Brazil;-22.92008;-43.33069
Itanagar;Arunachal Pradesh;India;27.08694;93.60987
Pohang;North Gyeongsang Province;South Korea;36.02917;129.36481
Urbana;Illinois;United States;40.11059;-88.20727
Urbana;Iowa;United States;42.22416;-91.87434
Urbana;Maryland;United States;39.32594;-77.35137
Urbana;Ohio;United States;40.10839;-83.75243
Toronto;Ontario;Canada;43.70011;-79.4163
Edmonton;Alberta;Canada;53.55014;-113.46871
Nanjing;Taiwan;China;32.06167;118.77778
Cartagena;Murcia;Spain;37.60512;-0.98623
Riyadh;Riyadh;Saudi Arabia;24.68773;46.72185
Dalian;Liaoning;China;38.91222;121.60222
Daejeon;Daejeon;South Korea;36.34913;127.38493
Beijing;Beijing;China;39.9075;116.39723
Daejeon;Daejeon;South Korea;36.34913;127.38493
Beijing;Beijing;China;39.9075;116.39723
Lincoln;Alabama;United States;33.61316;-86.11831
Lincoln;Arkansas;United States;35.94953;-94.42355
Lincoln;California;United States;38.89156;-121.29301
Lincoln;Idaho;United States;43.51297;-111.96441
Lincoln;Illinois;United States;40.14838;-89.36482
Lincoln;Kansas;United States;39.04084;-98.14477
Lincoln;Maine;United States;45.36228;-68.50502
Lincoln;Massachusetts;United States;42.42593;-71.30395
Lincoln;Missouri;United States;38.39086;-93.33465
Lincoln;Montana;United States;46.95494;-112.68171
Lincoln;Nebraska;United States;40.8;-96.66696
Lincoln;North Dakota;United States;46.76249;-100.7004
Lincoln;Pennsylvania;United States;40.31896;-79.85477
Lincoln;Rhode Island;United States;41.92111;-71.435
Lincoln;Vermont;United States;44.10589;-72.99706
Zagreb;Zagreb;Croatia;45.81444;15.97798
Jeddah;Al Bahah;Saudi Arabia;21.54277778;39.17277778
Jeddah;Makkah;Saudi Arabia;21.54238;39.19797
Berkeley;California;United States;37.87159;-122.27275
Berkeley;Illinois;United States;41.88892;-87.9034
Berkeley;Missouri;United States;38.7545;-90.33123
Chongqing;Chongqing;China;29.56278;106.55278
Varanasi;Uttar Pradesh;India;25.31668;83.01041
East Lansing;Michigan;United States;42.73698;-84.48387
Flagstaff;Arizona;United States;35.19807;-111.65127
Chongqing;Chongqing;China;29.56278;106.55278
Miami;Arizona;United States;33.39922;-110.86872
Miami;Florida;United States;25.77427;-80.19366
Miami;Oklahoma;United States;36.87451;-94.87746
Miami;Texas;United States;35.69143;-100.63819
New Brunswick;New Jersey;United States;40.48622;-74.45182
Chengdu;Sichuan;China;30.66667;104.06667
Southampton;England;United Kingdom;50.91667;-1.38333
Ningbo;Zhejiang;China;29.87819;121.54945
Fayetteville;Alabama;United States;33.14567;-86.40581
Fayetteville;Arkansas;United States;36.06258;-94.15743
Fayetteville;Georgia;United States;33.44873;-84.45493
Fayetteville;New York;United States;43.02979;-76.00436
Fayetteville;North Carolina;United States;35.05266;-78.87836
Fayetteville;Pennsylvania;United States;39.9112;-77.54999
Fayetteville;Tennessee;United States;35.15203;-86.57055
Fayetteville;West Virginia;United States;38.05289;-81.10399
Lucknow;Uttar Pradesh;India;26.83928;80.92313
Guangzhou;Guangdong;China;23.11667;113.25
Jinan;Shandong;China;36.66833;116.99722
East Lansing;Michigan;United States;42.73698;-84.48387
Wuhan;Hubei;China;30.58333;114.26667
Wuhan;Hubei;China;30.58333;114.26667
Barcelona;Catalonia;Spain;41.38879;2.15899
Shanghai;Shanghai;China;31.22222;121.45806
Bishkek;Bishkek;Kyrgyzstan;42.87;74.59
Visakhapatnam;Andhra Pradesh;India;17.68009;83.20161
Ningbo;Zhejiang;China;29.87819;121.54945
Sanming;Fujian;China;26.24861;117.61861
Victoria;Entre Ríos;Argentina;-32.61841;-60.15478
Beijing;Beijing;China;39.9075;116.39723
Giza;Giza;Egypt;30.00808;31.21093
Cincinnati;Ohio;United States;39.12711;-84.51439
New Delhi;Delhi;India;28.63576;77.22445
Harbin;Heilongjiang;China;45.75;126.65
Baku;Baku;Azerbaijan;40.37767;49.89201
Seattle;Washington;United States;47.60621;-122.33207
Madrid;Madrid;Spain;40.4165;-3.70256
Sydney;New South Wales;Australia;-33.86785;151.20732
Harbin;Heilongjiang;China;45.75;126.65
Rabat;Kénitra;Morocco;34.01325;-6.83255
Xiamen;Fujian;China;24.47979;118.08187
Beijing;Beijing;China;39.9075;116.39723
Shanghai;Shanghai;China;31.22222;121.45806
Bath;England;United Kingdom;51.3751;-2.36172
New Delhi;Delhi;India;28.63576;77.22445
Shanghai;Shanghai;China;31.22222;121.45806
Beijing;Beijing;China;39.9075;116.39723
Beijing;Beijing;China;39.9075;116.39723
Tianjin;Tianjin;China;39.14666667;117.20555556
Guangzhou;Guangdong;China;23.11667;113.25
Dalian;Liaoning;China;38.91222;121.60222
Qufu;Shandong;China;35.59667;116.99111
Williamsburg;Florida;United States;28.41445;-81.44285
Williamsburg;Iowa;United States;41.66112;-92.00907
Williamsburg;Kentucky;United States;36.74342;-84.15966
Williamsburg;Massachusetts;United States;42.39314;-72.73009
Williamsburg;New York;United States;40.71427;-73.95347
Williamsburg;Ohio;United States;39.05423;-84.05299
Williamsburg;Pennsylvania;United States;40.46202;-78.19973
Williamsburg;Virginia;United States;37.2707;-76.70746
Shanghai;Shanghai;China;31.22222;121.45806
Shiraz;Fars Province;Iran;29.61031;52.53113
Qufu;Shandong;China;35.59667;116.99111
Beijing;Beijing;China;39.9075;116.39723
Chengdu;Sichuan;China;30.66667;104.06667
Beijing;Beijing;China;39.9075;116.39723
Baku;Baku;Azerbaijan;40.37767;49.89201
Ikoma;Nara Prefecture;Japan;34.68333;135.7
Nanjing;Taiwan;China;32.06167;118.77778
Glasgow;Scotland;United Kingdom;55.86515;-4.25763
Rize;Rize;Turkey;41.02083;40.52194
Edmonton;Alberta;Canada;53.55014;-113.46871
Shenzhen;Guangdong;China;22.55653;113.9859
Melbourne;Victoria;Australia;-37.814;144.96332
Shanghai;Shanghai;China;31.22222;121.45806
Silver Spring;Maryland;United States;38.99067;-77.02609
Dodoma;Dodoma;Tanzania;-6.17221;35.73947
Morgantown;Kentucky;United States;37.2256;-86.6836
Morgantown;Mississippi;United States;31.57267;-91.34761
Morgantown;West Virginia;United States;39.62953;-79.9559
Ottawa;Ontario;Canada;45.41117;-75.69812
Trondheim;Trøndelag;Norway;63.42811;10.39687
Taipei;Taipei;Taiwan;25.04776;121.53185
London;Ontario;Canada;42.98339;-81.23304
Suzhou;Anhui;China;33.63611;116.97889
Suzhou;Taiwan;China;31.30408;120.59538
Beijing;Beijing;China;39.9075;116.39723
Shanghai;Shanghai;China;31.22222;121.45806
Getafe;Madrid;Spain;40.30571;-3.73295
Wuhan;Hubei;China;30.58333;114.26667
Sydney;New South Wales;Australia;-33.86785;151.20732
Seoul;Seoul;South Korea;37.566;126.9784
Birmingham;Alabama;United States;33.52066;-86.80249
Birmingham;Michigan;United States;42.5467;-83.21132
Braga;Braga;Portugal;41.55032;-8.42005
Nanjing;Taiwan;China;32.06167;118.77778
Xiamen;Fujian;China;24.47979;118.08187
Stockholm;Stockholm County;Sweden;59.33258;18.0649
Greater Noida;Uttar Pradesh;India;28.49615;77.53601
Salt Lake City;Utah;United States;40.76078;-111.89105
Edinburgh;Scotland;United Kingdom;55.95206;-3.19648
Asan;South Chungcheong Province;South Korea;36.78361;127.00417
Nanjing;Taiwan;China;32.06167;118.77778
Tehran;Tehran Province;Iran;35.69439;51.42151
Beijing;Beijing;China;39.9075;116.39723
Greater Noida;Uttar Pradesh;India;28.49615;77.53601
Berkeley;California;United States;37.87159;-122.27275
Berkeley;Illinois;United States;41.88892;-87.9034
Berkeley;Missouri;United States;38.7545;-90.33123
Dublin;Leinster;Ireland;53.33306;-6.24889
Changsha;Guizhou;China;28.68778;105.98972
Changsha;Hunan;China;28.19874;112.97087
Edmonton;Alberta;Canada;53.55014;-113.46871
Oulu;Northern Ostrobothnia;Finland;65.01236;25.46816
Atlanta;Georgia;United States;33.749;-84.38798
Atlanta;Illinois;United States;40.25948;-89.23342
Atlanta;Michigan;United States;45.00473;-84.14389
Atlanta;Texas;United States;33.11374;-94.16435
Bengaluru;Karnataka;India;12.97194;77.59369
Santiago de Compostela;Galicia;Spain;42.88052;-8.54569
Pittsburgh;Pennsylvania;United States;40.44062;-79.99589
Budapest;Budapest;Hungary;47.49835;19.04045
Logan;Iowa;United States;41.64305;-95.7889
Logan;Ohio;United States;39.54007;-82.4071
Logan;Utah;United States;41.73549;-111.83439
Logan;West Virginia;United States;37.84871;-81.99346
Oak Ridge;Florida;United States;28.47112;-81.42452
Oak Ridge;North Carolina;United States;36.17347;-79.98893
Oak Ridge;Tennessee;United States;36.01036;-84.26964
Kanpur;Uttar Pradesh;India;26.46523;80.34975
San Jose;California;United States;37.33939;-121.89496
Nanjing;Taiwan;China;32.06167;118.77778
Gainesville;Florida;United States;29.65163;-82.32483
Gainesville;Georgia;United States;34.29788;-83.82407
Gainesville;Missouri;United States;36.60312;-92.42822
Gainesville;Texas;United States;33.62594;-97.13335
Gainesville;Virginia;United States;38.79567;-77.61388
St. Louis;Missouri;United States;38.62727;-90.19789
Sanandaj;Kurdistan Province;Iran;35.31495;46.99883
Boston;Georgia;United States;30.79186;-83.78989
Boston;Massachusetts;United States;42.35843;-71.05977
Boston;New York;United States;42.62895;-78.73753
Nancy;Grand-Est;France;48.68439;6.18496
Adelaide;South Australia;Australia;-34.92866;138.59863
Bolzano;Trentino-South Tyrol;Italy;46.71667;11.5
Guangzhou;Guangdong;China;23.11667;113.25
Seattle;Washington;United States;47.60621;-122.33207
London;England;United Kingdom;51.50853;-0.12574
Pune;Maharashtra;India;18.51957;73.85535
Chengdu;Sichuan;China;30.66667;104.06667
Esch-sur-Alzette;Canton of Esch-sur-Alzette;Luxembourg;49.49583;5.98056
Gainesville;Florida;United States;29.65163;-82.32483
Gainesville;Georgia;United States;34.29788;-83.82407
Gainesville;Missouri;United States;36.60312;-92.42822
Gainesville;Texas;United States;33.62594;-97.13335
Gainesville;Virginia;United States;38.79567;-77.61388
Beijing;Beijing;China;39.9075;116.39723
Pullman;Washington;United States;46.73127;-117.17962
Canberra;Australian Capital Territory;Australia;-35.28346;149.12807
Brisbane;Queensland;Australia;-27.46794;153.02809
Shanghai;Shanghai;China;31.22222;121.45806
Shanghai;Shanghai;China;31.22222;121.45806
Shanghai;Shanghai;China;31.22222;121.45806
Beijing;Beijing;China;39.9075;116.39723
Menlo Park;California;United States;37.45383;-122.18219
Seoul;Seoul;South Korea;37.566;126.9784
Hefei;Anhui;China;31.86389;117.28083
Redmond;Oregon;United States;44.27262;-121.17392
Redmond;Washington;United States;47.67399;-122.12151
Nijmegen;Gelderland;Netherlands;51.8425;5.85278
Buffalo;Iowa;United States;41.45642;-90.72347
Buffalo;Minnesota;United States;45.17191;-93.87469
Buffalo;Missouri;United States;37.64393;-93.09241
Buffalo;New York;United States;42.88645;-78.87837
Buffalo;Oklahoma;United States;36.83559;-99.6304
Buffalo;South Carolina;United States;34.72569;-81.68343
Buffalo;South Dakota;United States;45.58416;-103.54603
Buffalo;Texas;United States;31.46379;-96.05802
Buffalo;West Virginia;United States;38.61759;-81.9818
Buffalo;Wyoming;United States;44.34831;-106.69894
Nanjing;Taiwan;China;32.06167;118.77778
Maha Sarakham;Maha Sarakham;Thailand;16.18483;103.30067
Chennai;Tamil Nadu;India;13.08784;80.27847
Melbourne;Victoria;Australia;-37.814;144.96332
Canberra;Australian Capital Territory;Australia;-35.28346;149.12807
Bergen;Hordaland;Norway;60.392;5.328
Sydney;New South Wales;Australia;-33.86785;151.20732
Huancayo;Junín;Peru;-12.06513;-75.20486
London;England;United Kingdom;51.50853;-0.12574
Guangzhou;Guangdong;China;23.11667;113.25
Shenzhen;Guangdong;China;22.55653;113.9859
Delft;South Holland;Netherlands;52.00667;4.35556
Changsha;Guizhou;China;28.68778;105.98972
Changsha;Hunan;China;28.19874;112.97087
Toulouse;Occitanie;France;43.60426;1.44367
Granada;Andalusia;Spain;37.18817;-3.60667
Shenzhen;Guangdong;China;22.55653;113.9859
Liverpool;England;United Kingdom;53.41058;-2.97794
Shanghai;Shanghai;China;31.22222;121.45806
Utrecht;Utrecht;Netherlands;52.09083;5.12222
Beijing;Beijing;China;39.9075;116.39723
Paris;Île-de-France;France;48.8534;2.3486
Seattle;Washington;United States;47.60621;-122.33207
Leiden;South Holland;Netherlands;52.15833;4.49306
La Jolla;California;United States;32.84727;-117.2742
Aurangabad;Bihar;India;24.75204;84.3742
Aurangabad;Maharashtra;India;19.88467;75.33986
Kyiv;Kiev;Ukraine;50.45466;30.5238
Lahore;Punjab;Pakistan;31.558;74.35071
Chennai;Tamil Nadu;India;13.08784;80.27847
Shanghai;Shanghai;China;31.22222;121.45806
Wuhan;Hubei;China;30.58333;114.26667
Chongqing;Chongqing;China;29.56278;106.55278
College Station;Texas;United States;30.62798;-96.33441
Waterloo;Ontario;Canada;43.4668;-80.51639
Waterloo;Quebec;Canada;45.35008;-72.51582
Foggia;Apulia;Italy;41.45845;15.55188
Coventry;England;United Kingdom;52.40656;-1.51217
College Station;Texas;United States;30.62798;-96.33441
College Station;Texas;United States;30.62798;-96.33441
Lexington;Georgia;United States;33.86984;-83.11182
Lexington;Illinois;United States;40.64142;-88.7834
Lexington;Kentucky;United States;37.98869;-84.47772
Lexington;Massachusetts;United States;42.44732;-71.2245
Lexington;Michigan;United States;43.26808;-82.53076
Lexington;Minnesota;United States;45.14247;-93.16328
Lexington;Mississippi;United States;33.11318;-90.05314
Lexington;Missouri;United States;39.18473;-93.87994
Lexington;Nebraska;United States;40.78084;-99.7415
Lexington;North Carolina;United States;35.82403;-80.25338
Lexington;Ohio;United States;40.67867;-82.58239
Lexington;Oklahoma;United States;35.01479;-97.33558
Lexington;South Carolina;United States;33.98154;-81.23621
Lexington;Tennessee;United States;35.6509;-88.39338
Lexington;Texas;United States;30.4191;-97.01165
Lexington;Virginia;United States;37.78402;-79.44282
Greater Noida;Uttar Pradesh;India;28.49615;77.53601
Noida;Uttar Pradesh;India;28.58;77.33
Guangzhou;Guangdong;China;23.11667;113.25
Wuhan;Hubei;China;30.58333;114.26667
Sendai;Miyagi Prefecture;Japan;38.26667;140.86667
Beijing;Beijing;China;39.9075;116.39723
Baku;Baku;Azerbaijan;40.37767;49.89201
Hangzhou;Zhejiang;China;30.29365;120.16142
Hangzhou;Zhejiang;China;30.29365;120.16142
Tacoma;Washington;United States;47.25288;-122.44429
London;England;United Kingdom;51.50853;-0.12574
Redmond;Oregon;United States;44.27262;-121.17392
Redmond;Washington;United States;47.67399;-122.12151
Bologna;Emilia-Romagna;Italy;44.46667;11.43333
Nijmegen;Gelderland;Netherlands;51.8425;5.85278
Beijing;Beijing;China;39.9075;116.39723
Muscat;Muscat Governorate;Oman;23.58413;58.40778
Recife;Pernambuco;Brazil;-8.05389;-34.88111
Cambridge;England;United Kingdom;52.2;0.11667
Santiago;Región Metropolitana de Santiago;Chile;-33.45694;-70.64827
Beijing;Beijing;China;39.9075;116.39723
Shanghai;Shanghai;China;31.22222;121.45806
Wuxi;Hunan;China;26.5844;111.859
Wuxi;Taiwan;China;31.56887;120.28857
Lexington;Georgia;United States;33.86984;-83.11182
Lexington;Illinois;United States;40.64142;-88.7834
Lexington;Kentucky;United States;37.98869;-84.47772
Lexington;Massachusetts;United States;42.44732;-71.2245
Lexington;Michigan;United States;43.26808;-82.53076
Lexington;Minnesota;United States;45.14247;-93.16328
Lexington;Mississippi;United States;33.11318;-90.05314
Lexington;Missouri;United States;39.18473;-93.87994
Lexington;Nebraska;United States;40.78084;-99.7415
Lexington;North Carolina;United States;35.82403;-80.25338
Lexington;Ohio;United States;40.67867;-82.58239
Lexington;Oklahoma;United States;35.01479;-97.33558
Lexington;South Carolina;United States;33.98154;-81.23621
Lexington;Tennessee;United States;35.6509;-88.39338
Lexington;Texas;United States;30.4191;-97.01165
Lexington;Virginia;United States;37.78402;-79.44282
Atlanta;Georgia;United States;33.749;-84.38798
Atlanta;Illinois;United States;40.25948;-89.23342
Atlanta;Michigan;United States;45.00473;-84.14389
Atlanta;Texas;United States;33.11374;-94.16435
Trujillo;La Libertad;Peru;-8.11599;-79.02998
Hangzhou;Zhejiang;China;30.29365;120.16142
Kabul;Kabul;Afghanistan;34.52813;69.17233
Oldenburg;Lower Saxony;Germany;53.14118;8.21467
Chandigarh;Chandigarh;India;30.73629;76.7884
Indore;Madhya Pradesh;India;22.66667;75.75
Surabaya;Jawa Timur;Indonesia;-7.24917;112.75083
Dhahran;Eastern Province;Saudi Arabia;26.28864;50.11396
Wuhan;Hubei;China;30.58333;114.26667
Guangzhou;Guangdong;China;23.11667;113.25
Tiruchirappalli;Tamil Nadu;India;10.97;78.65
Hyderabad;Telangana;India;17.38405;78.45636
Madrid;Madrid;Spain;40.4165;-3.70256
Beijing;Beijing;China;39.9075;116.39723
Tianjin;Tianjin;China;39.14666667;117.20555556
West Lafayette;Indiana;United States;40.42587;-86.90807
West Lafayette;Ohio;United States;40.27535;-81.75096
Lahore;Punjab;Pakistan;31.558;74.35071
Chennai;Tamil Nadu;India;13.08784;80.27847
Sassari;Sardinia;Italy;40.72586;8.55552
Amman;Amman Governorate;Jordan;31.95522;35.94503
Pune;Maharashtra;India;18.51957;73.85535
Tokyo;Tokyo;Japan;35.6895;139.69171
Bengaluru;Karnataka;India;12.97194;77.59369
Ha'il;Ha'il;Saudi Arabia;27.52188;41.69073
Sejong;Sejong City;South Korea;36.59245;127.29223
Beijing;Beijing;China;39.9075;116.39723
Zhenjiang;Taiwan;China;32.21086;119.45508
Shenyang;Liaoning;China;41.79222;123.43278
Toowoomba;Queensland;Australia;-27.47958;151.47705
Harbin;Heilongjiang;China;45.75;126.65
Minneapolis;Kansas;United States;39.12194;-97.7067
Minneapolis;Minnesota;United States;44.97997;-93.26384
University Park;Florida;United States;25.74649;-80.36755
University Park;Illinois;United States;41.44298;-87.6836
University Park;Maryland;United States;38.97039;-76.94192
University Park;New Mexico;United States;32.28343;-106.75334
University Park;Texas;United States;32.85013;-96.80028
Ljubljana;Ljubljana City Municipality;Slovenia;46.05108;14.50513
Bengaluru;Karnataka;India;12.97194;77.59369
Alexandria;Alexandria;Egypt;31.20176;29.91582
Wuhan;Hubei;China;30.58333;114.26667
Syracuse;Indiana;United States;41.42783;-85.75249
Syracuse;Kansas;United States;37.98071;-101.7543
Syracuse;Nebraska;United States;40.65722;-96.1864
Syracuse;New York;United States;43.04812;-76.14742
Syracuse;Utah;United States;41.08939;-112.06467
Minneapolis;Kansas;United States;39.12194;-97.7067
Minneapolis;Minnesota;United States;44.97997;-93.26384
Johannesburg;Gauteng;South Africa;-26.20227;28.04363
Busan;Busan;South Korea;35.10168;129.03004
Portsmouth;England;United Kingdom;50.8;-1.06667
Wuhan;Hubei;China;30.58333;114.26667
Vellore;Tamil Nadu;India;12.86;79.035
Mostaganem;Mostaganem;Algeria;35.93115;0.08918
Wako;Saitama Prefecture;Japan;35.78944;139.62333
Beijing;Beijing;China;39.9075;116.39723
Shenyang;Liaoning;China;41.79222;123.43278
Morgantown;Kentucky;United States;37.2256;-86.6836
Morgantown;Mississippi;United States;31.57267;-91.34761
Morgantown;West Virginia;United States;39.62953;-79.9559
Hefei;Anhui;China;31.86389;117.28083
Hangzhou;Zhejiang;China;30.29365;120.16142
Boston;Georgia;United States;30.79186;-83.78989
Boston;Massachusetts;United States;42.35843;-71.05977
Boston;New York;United States;42.62895;-78.73753
Nicosia;Nicosia District (Lefkoşa);Cyprus;35.17531;33.3642
Chengdu;Sichuan;China;30.66667;104.06667
Chandigarh;Chandigarh;India;30.73629;76.7884
Nakhon Ratchasima;Nakhon Ratchasima;Thailand;14.97066;102.10196
Beijing;Beijing;China;39.9075;116.39723
Beijing;Beijing;China;39.9075;116.39723
Toronto;Ontario;Canada;43.70011;-79.4163
Kunming;Yunnan;China;25.03889;102.71833
Oxford;England;United Kingdom;51.75222;-1.25596
Lexington;Georgia;United States;33.86984;-83.11182
Lexington;Illinois;United States;40.64142;-88.7834
Lexington;Kentucky;United States;37.98869;-84.47772
Lexington;Massachusetts;United States;42.44732;-71.2245
Lexington;Michigan;United States;43.26808;-82.53076
Lexington;Minnesota;United States;45.14247;-93.16328
Lexington;Mississippi;United States;33.11318;-90.05314
Lexington;Missouri;United States;39.18473;-93.87994
Lexington;Nebraska;United States;40.78084;-99.7415
Lexington;North Carolina;United States;35.82403;-80.25338
Lexington;Ohio;United States;40.67867;-82.58239
Lexington;Oklahoma;United States;35.01479;-97.33558
Lexington;South Carolina;United States;33.98154;-81.23621
Lexington;Tennessee;United States;35.6509;-88.39338
Lexington;Texas;United States;30.4191;-97.01165
Lexington;Virginia;United States;37.78402;-79.44282
Taiyuan;Shanxi;China;37.86944;112.56028
Shanghai;Shanghai;China;31.22222;121.45806
Wuxi;Hunan;China;26.5844;111.859
Wuxi;Taiwan;China;31.56887;120.28857
Beijing;Beijing;China;39.9075;116.39723
Mannheim;Baden-Württemberg;Germany;49.4891;8.46694
Tlemcen;Tlemcen;Algeria;34.87833;-1.315
Cleveland;Alabama;United States;33.99093;-86.57749
Cleveland;Florida;United States;26.96173;-81.98398
Cleveland;Georgia;United States;34.59704;-83.76324
Cleveland;Mississippi;United States;33.744;-90.72482
Cleveland;Ohio;United States;41.4995;-81.69541
Cleveland;Oklahoma;United States;36.31032;-96.46584
Cleveland;Tennessee;United States;35.15952;-84.87661
Cleveland;Texas;United States;30.34132;-95.08549
Cleveland;Wisconsin;United States;43.91499;-87.74731
Lucca;Tuscany;Italy;43.84369;10.50447
Davis;California;United States;38.54491;-121.74052
Davis;Oklahoma;United States;34.50453;-97.11946
Atlanta;Georgia;United States;33.749;-84.38798
Atlanta;Illinois;United States;40.25948;-89.23342
Atlanta;Michigan;United States;45.00473;-84.14389
Atlanta;Texas;United States;33.11374;-94.16435
Shanghai;Shanghai;China;31.22222;121.45806
Shanghai;Shanghai;China;31.22222;121.45806
Sassari;Sardinia;Italy;40.72586;8.55552
Manchester;England;United Kingdom;53.41667;-2.25
Belgrade;Central Banat District;Serbia;44.80401;20.46513
Sydney;New South Wales;Australia;-33.86785;151.20732
Shanghai;Shanghai;China;31.22222;121.45806
Edinburgh;Scotland;United Kingdom;55.95206;-3.19648
Geneseo;Illinois;United States;41.44809;-90.15428
Geneseo;New York;United States;42.7959;-77.81695
Dresden;Saxony;Germany;51.05089;13.73832
Arlington;Georgia;United States;31.4399;-84.72492
Arlington;Maryland;United States;39.34857;-76.68324
Arlington;Massachusetts;United States;42.41537;-71.15644
Arlington;Minnesota;United States;44.6083;-94.08053
Arlington;Nebraska;United States;41.4525;-96.35113
Arlington;New York;United States;41.69593;-73.8968
Arlington;Ohio;United States;40.89366;-83.65021
Arlington;Tennessee;United States;35.2962;-89.66147
Arlington;Texas;United States;32.73569;-97.10807
Arlington;Vermont;United States;43.0748;-73.154
Arlington;Virginia;United States;38.88101;-77.10428
Arlington;Washington;United States;48.19871;-122.12514
Chía;Cundinamarca;Colombia;4.84452;-74.05848
Lucca;Tuscany;Italy;43.84369;10.50447
Tehran;Tehran Province;Iran;35.69439;51.42151
Shenyang;Liaoning;China;41.79222;123.43278
Frankfurt am Main;Hesse;Germany;50.11552;8.68417
Changsha;Guizhou;China;28.68778;105.98972
Changsha;Hunan;China;28.19874;112.97087
Hangzhou;Zhejiang;China;30.29365;120.16142
Delft;South Holland;Netherlands;52.00667;4.35556
Ames;Iowa;United States;42.03471;-93.61994
Ames;Texas;United States;30.05383;-94.74353
Binghamton;New York;United States;42.09869;-75.91797
Huddersfield;England;United Kingdom;53.64904;-1.78416
Urbana;Illinois;United States;40.11059;-88.20727
Urbana;Iowa;United States;42.22416;-91.87434
Urbana;Maryland;United States;39.32594;-77.35137
Urbana;Ohio;United States;40.10839;-83.75243
Beijing;Beijing;China;39.9075;116.39723
Beijing;Beijing;China;39.9075;116.39723
Changsha;Guizhou;China;28.68778;105.98972
Changsha;Hunan;China;28.19874;112.97087
Beijing;Beijing;China;39.9075;116.39723
Bellevue;Idaho;United States;43.46352;-114.2606
Bellevue;Illinois;United States;40.68448;-89.6801
Bellevue;Iowa;United States;42.25863;-90.42291
Bellevue;Kentucky;United States;39.10645;-84.47883
Bellevue;Michigan;United States;42.44337;-85.01805
Bellevue;Nebraska;United States;41.13667;-95.89084
Bellevue;Ohio;United States;41.27366;-82.84158
Bellevue;Pennsylvania;United States;40.49396;-80.05172
Bellevue;Washington;United States;47.61038;-122.20068
Bellevue;Wisconsin;United States;44.44416;-87.9201
London;England;United Kingdom;51.50853;-0.12574
Kafin Hausa;Jigawa;Nigeria;12.23933;9.91105
Brighton;England;United Kingdom;50.82838;-0.13947
Birmingham;England;United Kingdom;52.48142;-1.89983
Chennai;Tamil Nadu;India;13.08784;80.27847
Kollam;Kerala;India;8.88113;76.58469
Kunming;Yunnan;China;25.03889;102.71833
Munich;Bavaria;Germany;48.13743;11.57549
Beijing;Beijing;China;39.9075;116.39723
Santiago;Región Metropolitana de Santiago;Chile;-33.45694;-70.64827
Chongqing;Chongqing;China;29.56278;106.55278
Changchun;Jilin;China;43.88;125.32278
Tuscaloosa;Alabama;United States;33.20984;-87.56917
Tiruchirappalli;Tamil Nadu;India;10.97;78.65
Taiyuan;Shanxi;China;37.86944;112.56028
Tianjin;Tianjin;China;39.14666667;117.20555556
Kerman;Kerman Province;Iran;30.28321;57.07879
Maynooth;Leinster;Ireland;53.385;-6.59361
Beijing;Beijing;China;39.9075;116.39723
Athens;Attica Region;Greece;37.98376;23.72784
Wuhan;Hubei;China;30.58333;114.26667
Nanjing;Taiwan;China;32.06167;118.77778
Harbin;Heilongjiang;China;45.75;126.65
Beijing;Beijing;China;39.9075;116.39723
Chengdu;Sichuan;China;30.66667;104.06667
Aizawl;Mizoram;India;23.8;92.9
Chennai;Tamil Nadu;India;13.08784;80.27847
Washington, D.C.;District of Columbia;United States;38.89511;-77.03637
Abha;'Asir;Saudi Arabia;18.21639;42.50528
Abha;Makkah;Saudi Arabia;18.21666667;42.5
Hangzhou;Zhejiang;China;30.29365;120.16142
Gainesville;Florida;United States;29.65163;-82.32483
Gainesville;Georgia;United States;34.29788;-83.82407
Gainesville;Missouri;United States;36.60312;-92.42822
Gainesville;Texas;United States;33.62594;-97.13335
Gainesville;Virginia;United States;38.79567;-77.61388
Cali;Valle del Cauca;Colombia;3.41033;-76.58097
Quezon City;Metro Manila;Philippines;14.6488;121.0509
Queens;New York;United States;40.68149;-73.83652
University Park;Florida;United States;25.74649;-80.36755
University Park;Illinois;United States;41.44298;-87.6836
University Park;Maryland;United States;38.97039;-76.94192
University Park;New Mexico;United States;32.28343;-106.75334
University Park;Texas;United States;32.85013;-96.80028
Boston;Georgia;United States;30.79186;-83.78989
Boston;Massachusetts;United States;42.35843;-71.05977
Boston;New York;United States;42.62895;-78.73753
Pretoria;Gauteng;South Africa;-25.74486;28.18783
New Delhi;Delhi;India;28.63576;77.22445
Changsha;Guizhou;China;28.68778;105.98972
Changsha;Hunan;China;28.19874;112.97087
Rome;Lazio;Italy;41.89193;12.51133
Shanghai;Shanghai;China;31.22222;121.45806
Seoul;Seoul;South Korea;37.566;126.9784
Liverpool;England;United Kingdom;53.41058;-2.97794
Beijing;Beijing;China;39.9075;116.39723
Edmonton;Alberta;Canada;53.55014;-113.46871
Yazd;Yazd Province;Iran;31.89722;54.3675
Nanjing;Taiwan;China;32.06167;118.77778
Nancy;Grand-Est;France;48.68439;6.18496
Hangzhou;Zhejiang;China;30.29365;120.16142
Beijing;Beijing;China;39.9075;116.39723
Shenzhen;Guangdong;China;22.55653;113.9859
Tempe;Arizona;United States;33.41477;-111.90931
Syracuse;Indiana;United States;41.42783;-85.75249
Syracuse;Kansas;United States;37.98071;-101.7543
Syracuse;Nebraska;United States;40.65722;-96.1864
Syracuse;New York;United States;43.04812;-76.14742
Syracuse;Utah;United States;41.08939;-112.06467
Beijing;Beijing;China;39.9075;116.39723
Fukuoka;Fukuoka Prefecture;Japan;33.6;130.41667
Callaghan;New South Wales;Australia;-32.89205;151.70531
Riyadh;Riyadh;Saudi Arabia;24.68773;46.72185
Houghton;Michigan;United States;47.12187;-88.56901
Houghton;New York;United States;42.4234;-78.15723
Barcelona;Catalonia;Spain;41.38879;2.15899
Boston;Georgia;United States;30.79186;-83.78989
Boston;Massachusetts;United States;42.35843;-71.05977
Boston;New York;United States;42.62895;-78.73753
Amsterdam;North Holland;Netherlands;52.37403;4.88969
Edinburgh;Scotland;United Kingdom;55.95206;-3.19648
Nanjing;Taiwan;China;32.06167;118.77778
Doha;Doha;Qatar;25.28545;51.53096
Wuhan;Hubei;China;30.58333;114.26667
Baltimore;Maryland;United States;39.29038;-76.61219
Baltimore;Ohio;United States;39.84534;-82.60072
Hangzhou;Zhejiang;China;30.29365;120.16142
Jinan;Shandong;China;36.66833;116.99722
Zhengzhou;Henan;China;34.75778;113.64861
Beijing;Beijing;China;39.9075;116.39723
Dalian;Liaoning;China;38.91222;121.60222
Madison;Alabama;United States;34.69926;-86.74833
Madison;Connecticut;United States;41.27954;-72.59843
Madison;Florida;United States;30.46938;-83.41293
Madison;Georgia;United States;33.59568;-83.46794
Madison;Illinois;United States;38.68255;-90.15705
Madison;Indiana;United States;38.73589;-85.37996
Madison;Maine;United States;44.79756;-69.87978
Madison;Minnesota;United States;45.00968;-96.19588
Madison;Mississippi;United States;32.46181;-90.11536
Madison;Nebraska;United States;41.82834;-97.45505
Madison;New Hampshire;United States;43.89924;-71.1484
Madison;New Jersey;United States;40.75982;-74.4171
Madison;North Carolina;United States;36.38542;-79.95949
Madison;Ohio;United States;41.77116;-81.04982
Madison;South Dakota;United States;44.00608;-97.11395
Madison;Virginia;United States;38.38041;-78.2575
Madison;West Virginia;United States;38.06705;-81.81929
Madison;Wisconsin;United States;43.07305;-89.40123
Lausanne;Vaud;Switzerland;46.516;6.63282
Bangkok;Bangkok;Thailand;13.75398;100.50144
Aurora;Colorado;United States;39.72943;-104.83192
Aurora;Illinois;United States;41.76058;-88.32007
Aurora;Indiana;United States;39.057;-84.90134
Aurora;Minnesota;United States;47.52993;-92.23712
Aurora;Missouri;United States;36.97089;-93.71798
Aurora;Nebraska;United States;40.86723;-98.00422
Aurora;Ohio;United States;41.31755;-81.34539
Aurora;Texas;United States;33.06068;-97.50336
Aurora;Utah;United States;38.92219;-111.93409
Chennai;Tamil Nadu;India;13.08784;80.27847
Rennes;Bretagne;France;48.11198;-1.67429
Beijing;Beijing;China;39.9075;116.39723
Nanjing;Taiwan;China;32.06167;118.77778
Columbus;Georgia;United States;32.46098;-84.98771
Columbus;Indiana;United States;39.20144;-85.92138
Columbus;Kansas;United States;37.16923;-94.84412
Columbus;Minnesota;United States;45.26522;-93.05015
Columbus;Mississippi;United States;33.49567;-88.42726
Columbus;Montana;United States;45.63661;-109.25211
Columbus;Nebraska;United States;41.42973;-97.36838
Columbus;New Mexico;United States;31.8276;-107.64002
Columbus;North Carolina;United States;35.25317;-82.19706
Columbus;Ohio;United States;39.96118;-82.99879
Columbus;Texas;United States;29.70662;-96.53969
Columbus;Wisconsin;United States;43.33805;-89.01539
Leeds;England;United Kingdom;53.79648;-1.54785
Changchun;Jilin;China;43.88;125.32278
Hangzhou;Zhejiang;China;30.29365;120.16142
Nashik;Maharashtra;India;19.99727;73.79096
West Lafayette;Indiana;United States;40.42587;-86.90807
West Lafayette;Ohio;United States;40.27535;-81.75096
Trondheim;Trøndelag;Norway;63.42811;10.39687
Adelaide;South Australia;Australia;-34.92866;138.59863
Nanjing;Taiwan;China;32.06167;118.77778
Beijing;Beijing;China;39.9075;116.39723
Beijing;Beijing;China;39.9075;116.39723
Cincinnati;Ohio;United States;39.12711;-84.51439
Wuhan;Hubei;China;30.58333;114.26667
Butare;Southern Province;Rwanda;-2.59667;29.73944
Erlangen;Bavaria;Germany;49.59099;11.00783
Lanzhou;Gansu;China;36.05701;103.83987
Hohhot;Inner Mongolia;China;40.81056;111.65222
Valencia;Valencia;Spain;39.46975;-0.37739
Rio de Janeiro;Rio de Janeiro;Brazil;-22.92008;-43.33069
Suzhou;Anhui;China;33.63611;116.97889
Suzhou;Taiwan;China;31.30408;120.59538
Taipei;Taipei;Taiwan;25.04776;121.53185
Stavanger;Rogaland;Norway;58.96941;5.72856
Shanghai;Shanghai;China;31.22222;121.45806
Beijing;Beijing;China;39.9075;116.39723
Cergy-Pontoise;Île-de-France;France;49.03894;2.07805
Helsinki;Uusimaa;Finland;60.16952;24.93545
Changchun;Jilin;China;43.88;125.32278
Guangzhou;Guangdong;China;23.11667;113.25
Chongqing;Chongqing;China;29.56278;106.55278
Volos;Lefkada Regional Unit;Greece;39.36103;22.94248
Harbin;Heilongjiang;China;45.75;126.65
Amsterdam;North Holland;Netherlands;52.37403;4.88969
Gongju;South Chungcheong Province;South Korea;36.45556;127.12472
Urbana;Illinois;United States;40.11059;-88.20727
Urbana;Iowa;United States;42.22416;-91.87434
Urbana;Maryland;United States;39.32594;-77.35137
Urbana;Ohio;United States;40.10839;-83.75243
Bengaluru;Karnataka;India;12.97194;77.59369
Fuzhou;Fujian;China;26.06139;119.30611
Knoxville;Georgia;United States;32.72431;-83.99769
Knoxville;Illinois;United States;40.90837;-90.28485
Knoxville;Iowa;United States;41.32083;-93.10937
Knoxville;Tennessee;United States;35.96064;-83.92074
Wuhan;Hubei;China;30.58333;114.26667
Seattle;Washington;United States;47.60621;-122.33207
Knoxville;Georgia;United States;32.72431;-83.99769
Knoxville;Illinois;United States;40.90837;-90.28485
Knoxville;Iowa;United States;41.32083;-93.10937
Knoxville;Tennessee;United States;35.96064;-83.92074
Bhagalpur;Bihar;India;25.29023;87.06665
Tarapoto;San Martín;Peru;-6.50139;-76.36556
Beijing;Beijing;China;39.9075;116.39723
Colchester;England;United Kingdom;51.88921;0.90421
Shanghai;Shanghai;China;31.22222;121.45806
Shenyang;Liaoning;China;41.79222;123.43278
Lanzhou;Gansu;China;36.05701;103.83987
Tempe;Arizona;United States;33.41477;-111.90931
Changsha;Guizhou;China;28.68778;105.98972
Changsha;Hunan;China;28.19874;112.97087
Badajoz;Extremadura;Spain;38.87789;-6.97061
Beijing;Beijing;China;39.9075;116.39723
Beijing;Beijing;China;39.9075;116.39723
Milan;Lombardy;Italy;45.46427;9.18951
Albany;California;United States;37.88687;-122.29775
Albany;Georgia;United States;31.57851;-84.15574
Albany;Indiana;United States;40.30088;-85.24191
Albany;Kentucky;United States;36.6909;-85.13468
Albany;Louisiana;United States;30.50436;-90.58231
Albany;Minnesota;United States;45.62996;-94.57
Albany;Missouri;United States;40.24861;-94.33107
Albany;New York;United States;42.65258;-73.75623
Albany;Oregon;United States;44.63651;-123.10593
Albany;Texas;United States;32.72345;-99.2973
Albany;Wisconsin;United States;42.70778;-89.43706
Beijing;Beijing;China;39.9075;116.39723
Ankara;Ankara;Turkey;39.91987;32.85427
Carthage;Tunis Governorate;Tunisia;36.85961;10.32978
Gangneung;Gangwon Province;South Korea;37.75266;128.87239
Sydney;New South Wales;Australia;-33.86785;151.20732
Davis;California;United States;38.54491;-121.74052
Davis;Oklahoma;United States;34.50453;-97.11946
Yinchuan;Ningxia Huizu;China;38.46806;106.27306
Leshan;Sichuan;China;29.56227;103.76386
Beijing;Beijing;China;39.9075;116.39723
Cambridge;Illinois;United States;41.30365;-90.1929
Cambridge;Maryland;United States;38.56317;-76.07883
Cambridge;Massachusetts;United States;42.3751;-71.10561
Cambridge;Minnesota;United States;45.57274;-93.22439
Cambridge;Nebraska;United States;40.28195;-100.16569
Cambridge;New York;United States;43.02813;-73.38122
Cambridge;Ohio;United States;40.03118;-81.58846
Cambridge;Wisconsin;United States;43.00361;-89.0165
Calgary;Alberta;Canada;51.05011;-114.08529
Wenzhou;Zhejiang;China;27.99942;120.66682
Cambridge;Illinois;United States;41.30365;-90.1929
Cambridge;Maryland;United States;38.56317;-76.07883
Cambridge;Massachusetts;United States;42.3751;-71.10561
Cambridge;Minnesota;United States;45.57274;-93.22439
Cambridge;Nebraska;United States;40.28195;-100.16569
Cambridge;New York;United States;43.02813;-73.38122
Cambridge;Ohio;United States;40.03118;-81.58846
Cambridge;Wisconsin;United States;43.00361;-89.0165
Beijing;Beijing;China;39.9075;116.39723
West Lafayette;Indiana;United States;40.42587;-86.90807
West Lafayette;Ohio;United States;40.27535;-81.75096
Dehradun;Uttarakhand;India;30.33;78.06
Kenitra;Kénitra;Morocco;34.26101;-6.5802
Blacksburg;South Carolina;United States;35.12124;-81.51592
Blacksburg;Virginia;United States;37.22957;-80.41394
Kassel;Hesse;Germany;51.31667;9.5
Okinawa;Okinawa Prefecture;Japan;26.33583;127.80139
Amsterdam;North Holland;Netherlands;52.37403;4.88969
Birmingham;Alabama;United States;33.52066;-86.80249
Birmingham;Michigan;United States;42.5467;-83.21132
Delft;South Holland;Netherlands;52.00667;4.35556
Zhengzhou;Henan;China;34.75778;113.64861
Tehran;Tehran Province;Iran;35.69439;51.42151
Dublin;Leinster;Ireland;53.33306;-6.24889
Chengdu;Sichuan;China;30.66667;104.06667
Aachen;North Rhine-Westphalia;Germany;50.77664;6.08342
Espoo;Uusimaa;Finland;60.2052;24.6522
Wellington;Wellington Region;New Zealand;-41.28664;174.77557
Greenville;Alabama;United States;31.8296;-86.61775
Greenville;California;United States;40.13961;-120.95107
Greenville;Delaware;United States;39.779;-75.59826
Greenville;Georgia;United States;33.02874;-84.71298
Greenville;Illinois;United States;38.89227;-89.41314
Greenville;Kentucky;United States;37.20115;-87.17889
Greenville;Maine;United States;45.45949;-69.59061
Greenville;Michigan;United States;43.17753;-85.2528
Greenville;Mississippi;United States;33.40898;-91.05978
Greenville;Missouri;United States;37.12727;-90.45011
Greenville;New Hampshire;United States;42.76731;-71.8123
Greenville;New York;United States;40.99315;-73.81986
Greenville;North Carolina;United States;35.61266;-77.36635
Greenville;Ohio;United States;40.10283;-84.63301
Greenville;Pennsylvania;United States;41.4045;-80.39118
Greenville;Rhode Island;United States;41.87121;-71.55201
Greenville;South Carolina;United States;34.85262;-82.39401
Greenville;Texas;United States;33.13845;-96.11081
West Lafayette;Indiana;United States;40.42587;-86.90807
West Lafayette;Ohio;United States;40.27535;-81.75096
Zhenjiang;Taiwan;China;32.21086;119.45508
Nashville;Arkansas;United States;33.94567;-93.84713
Nashville;Georgia;United States;31.20742;-83.25015
Nashville;Illinois;United States;38.34366;-89.38064
Nashville;Indiana;United States;39.20727;-86.2511
Nashville;Michigan;United States;42.60281;-85.09305
Nashville;North Carolina;United States;35.9746;-77.96554
Nashville;Tennessee;United States;36.16589;-86.78444
Nashville;Wisconsin;United States;45.52274;-89.02484
Salamanca;Léon;Spain;40.96882;-5.66388
Salamanca;Madrid;Spain;40.42972;-3.67975
Coimbra;Coimbra;Portugal;40.20564;-8.41955
Milan;Lombardy;Italy;45.46427;9.18951
Nanchang;Jiangxi;China;28.68396;115.85306
Lima;Lima;Peru;-12.04318;-77.02824
New Delhi;Delhi;India;28.63576;77.22445
Berkeley;California;United States;37.87159;-122.27275
Berkeley;Illinois;United States;41.88892;-87.9034
Berkeley;Missouri;United States;38.7545;-90.33123
Sydney;New South Wales;Australia;-33.86785;151.20732
Sydney;New South Wales;Australia;-33.86785;151.20732
Yogyakarta;DI Yogyakarta;Indonesia;-7.80139;110.36472
Gondar;Amhara Region;Ethiopia;12.6;37.46667
Chapel Hill;North Carolina;United States;35.9132;-79.05584
Chapel Hill;Tennessee;United States;35.62646;-86.69333
Beijing;Beijing;China;39.9075;116.39723
Lausanne;Vaud;Switzerland;46.516;6.63282
Vienna;Vienna;Austria;48.20849;16.37208
Kenitra;Kénitra;Morocco;34.26101;-6.5802
Zhengzhou;Henan;China;34.75778;113.64861
Eindhoven;North Brabant;Netherlands;51.44083;5.47778
Guangzhou;Guangdong;China;23.11667;113.25
London;England;United Kingdom;51.50853;-0.12574
Killybegs;Ulster;Ireland;54.63333;-8.45
Madrid;Madrid;Spain;40.4165;-3.70256
Tokyo;Tokyo;Japan;35.6895;139.69171
Sydney;New South Wales;Australia;-33.86785;151.20732
Nanjing;Taiwan;China;32.06167;118.77778
Pavia;Lombardy;Italy;45.19205;9.15917
Ann Arbor;Michigan;United States;42.27756;-83.74088
La Jolla;California;United States;32.84727;-117.2742
Melbourne;Victoria;Australia;-37.814;144.96332
Trieste;Friuli–Venezia Giulia;Italy;45.64953;13.77678
Greater Noida;Uttar Pradesh;India;28.49615;77.53601
Hohhot;Inner Mongolia;China;40.81056;111.65222
Ithaca;Michigan;United States;43.2917;-84.6075
Ithaca;New York;United States;42.44063;-76.49661
Nanjing;Taiwan;China;32.06167;118.77778
Valhalla;New York;United States;41.07482;-73.77513
Sydney;New South Wales;Australia;-33.86785;151.20732
Changzhou;Taiwan;China;31.77359;119.95401
Indore;Madhya Pradesh;India;22.66667;75.75
Guangzhou;Guangdong;China;23.11667;113.25
Jizan;Jizan;Saudi Arabia;16.88917;42.55111
Beijing;Beijing;China;39.9075;116.39723
Birmingham;England;United Kingdom;52.48142;-1.89983
Sligo;Connacht;Ireland;54.25;-8.66667
Guangzhou;Guangdong;China;23.11667;113.25
Busan;Busan;South Korea;35.10168;129.03004
Changsha;Guizhou;China;28.68778;105.98972
Changsha;Hunan;China;28.19874;112.97087
Madurai;Tamil Nadu;India;9.89;78.03
Fuzhou;Fujian;China;26.06139;119.30611
Dublin;Leinster;Ireland;53.33306;-6.24889
London;England;United Kingdom;51.50853;-0.12574
London;England;United Kingdom;51.50853;-0.12574
Townsville;Queensland;Australia;-19.26639;146.80569
Brussels;Brussels-Capital Region;Belgium;50.85045;4.34878
Embu;Embu;Kenya;-0.53987;37.45743
Kumasi;Ashanti;Ghana;6.68848;-1.62443
Haifa;Haifa District;Israel;32.81841;34.9885
Austin;Arkansas;United States;34.99842;-91.98376
Austin;Indiana;United States;38.75839;-85.80803
Austin;Minnesota;United States;43.66663;-92.97464
Austin;Texas;United States;30.26715;-97.74306
Beijing;Beijing;China;39.9075;116.39723
Trondheim;Trøndelag;Norway;63.42811;10.39687
Qingdao;Shandong;China;36.06488;120.38042
University Park;Florida;United States;25.74649;-80.36755
University Park;Illinois;United States;41.44298;-87.6836
University Park;Maryland;United States;38.97039;-76.94192
University Park;New Mexico;United States;32.28343;-106.75334
University Park;Texas;United States;32.85013;-96.80028
Graz;Styria;Austria;47.06667;15.45
Charlotte;Michigan;United States;42.56365;-84.83582
Charlotte;North Carolina;United States;35.22709;-80.84313
Charlotte;Tennessee;United States;36.17728;-87.33973
Charlotte;Texas;United States;28.86192;-98.70641
Charlotte;Vermont;United States;44.30977;-73.26096
Shenyang;Liaoning;China;41.79222;123.43278
Rio de Janeiro;Rio de Janeiro;Brazil;-22.92008;-43.33069
Beijing;Beijing;China;39.9075;116.39723
Boston;Georgia;United States;30.79186;-83.78989
Boston;Massachusetts;United States;42.35843;-71.05977
Boston;New York;United States;42.62895;-78.73753
Rome;Lazio;Italy;41.89193;12.51133
College Station;Texas;United States;30.62798;-96.33441
Pokhara;Western Region;Nepal;28.26689;83.96851
West Lafayette;Indiana;United States;40.42587;-86.90807
West Lafayette;Ohio;United States;40.27535;-81.75096
Qinhuangdao;Hebei;China;39.93167;119.58833
Bonn;North Rhine-Westphalia;Germany;50.73438;7.09549
Jiangmen;Guangdong;China;22.58333;113.08333
Trondheim;Trøndelag;Norway;63.42811;10.39687
Seoul;Seoul;South Korea;37.566;126.9784
New Haven;Connecticut;United States;41.30815;-72.92816
New Haven;Indiana;United States;41.0706;-85.01441
New Haven;Michigan;United States;42.72948;-82.80131
New Haven;Missouri;United States;38.60838;-91.21904
New Haven;West Virginia;United States;38.98647;-81.97347
Melbourne;Victoria;Australia;-37.814;144.96332
Tehran;Tehran Province;Iran;35.69439;51.42151
Tianjin;Tianjin;China;39.14666667;117.20555556
Delft;South Holland;Netherlands;52.00667;4.35556
Lanzhou;Gansu;China;36.05701;103.83987
Berkeley;California;United States;37.87159;-122.27275
Berkeley;Illinois;United States;41.88892;-87.9034
Berkeley;Missouri;United States;38.7545;-90.33123
Nancy;Grand-Est;France;48.68439;6.18496
Hangzhou;Zhejiang;China;30.29365;120.16142
Hangzhou;Zhejiang;China;30.29365;120.16142
Oxford;England;United Kingdom;51.75222;-1.25596
Qingdao;Shandong;China;36.06488;120.38042
Madison;Alabama;United States;34.69926;-86.74833
Madison;Connecticut;United States;41.27954;-72.59843
Madison;Florida;United States;30.46938;-83.41293
Madison;Georgia;United States;33.59568;-83.46794
Madison;Illinois;United States;38.68255;-90.15705
Madison;Indiana;United States;38.73589;-85.37996
Madison;Maine;United States;44.79756;-69.87978
Madison;Minnesota;United States;45.00968;-96.19588
Madison;Mississippi;United States;32.46181;-90.11536
Madison;Nebraska;United States;41.82834;-97.45505
Madison;New Hampshire;United States;43.89924;-71.1484
Madison;New Jersey;United States;40.75982;-74.4171
Madison;North Carolina;United States;36.38542;-79.95949
Madison;Ohio;United States;41.77116;-81.04982
Madison;South Dakota;United States;44.00608;-97.11395
Madison;Virginia;United States;38.38041;-78.2575
Madison;West Virginia;United States;38.06705;-81.81929
Madison;Wisconsin;United States;43.07305;-89.40123
Barcelona;Catalonia;Spain;41.38879;2.15899
Orlando;Florida;United States;28.53834;-81.37924
Changchun;Jilin;China;43.88;125.32278
Islamabad;Islamabad Capital Territory;Pakistan;33.72148;73.04329
Athens;Attica Region;Greece;37.98376;23.72784
Chicago;Illinois;United States;41.85003;-87.65005
Beijing;Beijing;China;39.9075;116.39723
Townsville;Queensland;Australia;-19.26639;146.80569
Vilnius;Vilnius City Municipality;Lithuania;54.68916;25.2798
Dundee;Scotland;United Kingdom;56.46913;-2.97489
Tampa;Florida;United States;27.94752;-82.45843
Siheung;Gyeonggi Province;South Korea;37.39067;126.7888
Greater Noida;Uttar Pradesh;India;28.49615;77.53601
Cambridge;Illinois;United States;41.30365;-90.1929
Cambridge;Maryland;United States;38.56317;-76.07883
Cambridge;Massachusetts;United States;42.3751;-71.10561
Cambridge;Minnesota;United States;45.57274;-93.22439
Cambridge;Nebraska;United States;40.28195;-100.16569
Cambridge;New York;United States;43.02813;-73.38122
Cambridge;Ohio;United States;40.03118;-81.58846
Cambridge;Wisconsin;United States;43.00361;-89.0165
Guangzhou;Guangdong;China;23.11667;113.25
Wuhan;Hubei;China;30.58333;114.26667
Dharwad;Karnataka;India;15.37;75.14
Bath;England;United Kingdom;51.3751;-2.36172
Tekkali;Andhra Pradesh;India;18.6057;84.23546
Bengaluru;Karnataka;India;12.97194;77.59369
Ghaziabad;Uttar Pradesh;India;28.66535;77.43915
Quezon City;Metro Manila;Philippines;14.6488;121.0509
Dalian;Liaoning;China;38.91222;121.60222
Stanford;California;United States;37.42411;-122.16608
Stanford;Kentucky;United States;37.53119;-84.66189
Stanford;Montana;United States;47.15358;-110.21826
Beijing;Beijing;China;39.9075;116.39723
Hangzhou;Zhejiang;China;30.29365;120.16142
Beijing;Beijing;China;39.9075;116.39723
Hangzhou;Zhejiang;China;30.29365;120.16142
Guangzhou;Guangdong;China;23.11667;113.25
College Park;Georgia;United States;33.65344;-84.44937
College Park;Maryland;United States;38.98067;-76.93692
Nanjing;Taiwan;China;32.06167;118.77778
Beijing;Beijing;China;39.9075;116.39723
Berlin;Berlin;Germany;52.52437;13.41053
Quito;Pichincha;Ecuador;-0.22985;-78.52495
Pune;Maharashtra;India;18.51957;73.85535
Hsinchu;Hsinchu;Taiwan;24.80361;120.96861
Uppsala;Uppsala County;Sweden;59.85882;17.63889
Rennes;Bretagne;France;48.11198;-1.67429
Munich;Bavaria;Germany;48.13743;11.57549
Mountain View;Arkansas;United States;35.86841;-92.11765
Mountain View;California;United States;37.38605;-122.08385
Mountain View;Hawaii;United States;19.55583;-155.10806
Mountain View;Missouri;United States;36.99533;-91.70376
Mountain View;North Carolina;United States;35.68319;-81.36898
Mountain View;Wyoming;United States;41.26884;-110.33988
Princeton;Florida;United States;25.53844;-80.40894
Princeton;Illinois;United States;41.36809;-89.46481
Princeton;Indiana;United States;38.35532;-87.56752
Princeton;Kentucky;United States;37.10922;-87.88196
Princeton;Massachusetts;United States;42.4487;-71.8773
Princeton;Minnesota;United States;45.56997;-93.58163
Princeton;Missouri;United States;40.40084;-93.5805
Princeton;New Jersey;United States;40.34872;-74.65905
Princeton;North Carolina;United States;35.46599;-78.16055
Princeton;Texas;United States;33.18012;-96.49804
Princeton;West Virginia;United States;37.36623;-81.10259
Princeton;Wisconsin;United States;43.85081;-89.12178
Chennai;Tamil Nadu;India;13.08784;80.27847
Taichung;Taichung;Taiwan;24.1469;120.6839
Washington, D.C.;District of Columbia;United States;38.89511;-77.03637
Mohali;Punjab;India;30.67995;76.72211
Carbondale;Colorado;United States;39.40221;-107.21116
Carbondale;Illinois;United States;37.72727;-89.21675
Carbondale;Kansas;United States;38.81862;-95.68915
Carbondale;Pennsylvania;United States;41.57369;-75.50185
Wuxi;Hunan;China;26.5844;111.859
Wuxi;Taiwan;China;31.56887;120.28857
Harbin;Heilongjiang;China;45.75;126.65
Edmonton;Alberta;Canada;53.55014;-113.46871
Madrid;Madrid;Spain;40.4165;-3.70256
Esch-sur-Alzette;Canton of Esch-sur-Alzette;Luxembourg;49.49583;5.98056
Sharjah;Sharjah Emirate;United Arab Emirates;25.33737;55.41206
Bilbao;Basque Country;Spain;43.26271;-2.92528
Trieste;Friuli–Venezia Giulia;Italy;45.64953;13.77678
Chicago;Illinois;United States;41.85003;-87.65005
Taipei;Taipei;Taiwan;25.04776;121.53185
Foggia;Apulia;Italy;41.45845;15.55188
Raleigh;Mississippi;United States;32.03349;-89.52229
Raleigh;North Carolina;United States;35.7721;-78.63861
Ashburn;Georgia;United States;31.70601;-83.65322
Ashburn;Illinois;United States;41.74753;-87.71116
Ashburn;Virginia;United States;39.04372;-77.48749
Irvine;California;United States;33.66946;-117.82311
Irvine;Kentucky;United States;37.70064;-83.97381
Rajpura;Punjab;India;30.47856;76.59284
Shanghai;Shanghai;China;31.22222;121.45806
Cambridge;Illinois;United States;41.30365;-90.1929
Cambridge;Maryland;United States;38.56317;-76.07883
Cambridge;Massachusetts;United States;42.3751;-71.10561
Cambridge;Minnesota;United States;45.57274;-93.22439
Cambridge;Nebraska;United States;40.28195;-100.16569
Cambridge;New York;United States;43.02813;-73.38122
Cambridge;Ohio;United States;40.03118;-81.58846
Cambridge;Wisconsin;United States;43.00361;-89.0165
Luoyang;Fujian;China;24.95938;118.683
Luoyang;Guangdong;China;23.16244;114.27342
Luoyang;Henan;China;34.68361;112.45361
Eindhoven;North Brabant;Netherlands;51.44083;5.47778
Rochester;Illinois;United States;39.74949;-89.53176
Rochester;Indiana;United States;41.06476;-86.21583
Rochester;Massachusetts;United States;41.73177;-70.82004
Rochester;Michigan;United States;42.68059;-83.13382
Rochester;Minnesota;United States;44.02163;-92.4699
Rochester;New Hampshire;United States;43.30453;-70.97562
Rochester;New York;United States;43.15478;-77.61556
Rochester;Pennsylvania;United States;40.70229;-80.28645
Rochester;Washington;United States;46.82177;-123.09625
Rochester;Wisconsin;United States;42.74141;-88.22426
Padang;Sumatera Barat;Indonesia;-0.94924;100.35427
Hyderabad;Telangana;India;17.38405;78.45636
Nanjing;Taiwan;China;32.06167;118.77778
Chlef;Chlef;Algeria;36.16525;1.33452
Liverpool;England;United Kingdom;53.41058;-2.97794
Baotou;Inner Mongolia;China;40.65222;109.82222
Hangzhou;Zhejiang;China;30.29365;120.16142
Phagwara;Punjab;India;31.22452;75.77387
Beijing;Beijing;China;39.9075;116.39723
Beijing;Beijing;China;39.9075;116.39723
Kyiv;Kiev;Ukraine;50.45466;30.5238
Bangkok;Bangkok;Thailand;13.75398;100.50144
Guangzhou;Guangdong;China;23.11667;113.25
Boston;Georgia;United States;30.79186;-83.78989
Boston;Massachusetts;United States;42.35843;-71.05977
Boston;New York;United States;42.62895;-78.73753
Hangzhou;Zhejiang;China;30.29365;120.16142
Nanjing;Taiwan;China;32.06167;118.77778
Changsha;Guizhou;China;28.68778;105.98972
Changsha;Hunan;China;28.19874;112.97087
Pisa;Tuscany;Italy;43.70853;10.4036
Koblenz;Rhineland-Palatinate;Germany;50.35357;7.57883
Amman;Amman Governorate;Jordan;31.95522;35.94503
Shenyang;Liaoning;China;41.79222;123.43278
Kennesaw;Georgia;United States;34.02343;-84.61549
Brisbane;Queensland;Australia;-27.46794;153.02809
Guilin;Guangxi Zhuang;China;25.28194;110.28639
Halifax;Nova Scotia;Canada;44.64533;-63.57239
Sevilla;Andalusia;Spain;37.38283;-5.97317
Beijing;Beijing;China;39.9075;116.39723
Halden;Østfold;Norway;59.12258;11.38709
Mexico City;Mexico City;Mexico;19.42847;-99.12766
Vellore;Tamil Nadu;India;12.86;79.035
Jerusalem;Jerusalem District;Israel;31.76904;35.21633
Tianjin;Tianjin;China;39.14666667;117.20555556
Tokyo;Tokyo;Japan;35.6895;139.69171
Nanjing;Taiwan;China;32.06167;118.77778
London;England;United Kingdom;51.50853;-0.12574
Edinburgh;Scotland;United Kingdom;55.95206;-3.19648
Shanghai;Shanghai;China;31.22222;121.45806
Kolkata;West Bengal;India;22.54111111;88.33777778
San Francisco;California;United States;37.77493;-122.41942
Hangzhou;Zhejiang;China;30.29365;120.16142
Swansea;Wales;United Kingdom;51.62079;-3.94323
Vienna;Vienna;Austria;48.20849;16.37208
Dalian;Liaoning;China;38.91222;121.60222
Front Royal;Virginia;United States;38.91817;-78.19444
Ankara;Ankara;Turkey;39.91987;32.85427
Berlin;Berlin;Germany;52.52437;13.41053
Bonn;North Rhine-Westphalia;Germany;50.73438;7.09549
Albuquerque;New Mexico;United States;35.08449;-106.65114
London;England;United Kingdom;51.50853;-0.12574
Chongqing;Chongqing;China;29.56278;106.55278
Beijing;Beijing;China;39.9075;116.39723
Aberdeen;Scotland;United Kingdom;57.14369;-2.09814
Bardhaman;West Bengal;India;23.25;87.85
Changsha;Guizhou;China;28.68778;105.98972
Changsha;Hunan;China;28.19874;112.97087
Beijing;Beijing;China;39.9075;116.39723
Grenoble;Auvergne-Rhône-Alpes;France;45.17869;5.71479
Mendaro;Basque Country;Spain;43.25326;-2.38568
New Delhi;Delhi;India;28.63576;77.22445
Tianjin;Tianjin;China;39.14666667;117.20555556
Stony Brook;New York;United States;40.92565;-73.14094
Beijing;Beijing;China;39.9075;116.39723
Rio de Janeiro;Rio de Janeiro;Brazil;-22.92008;-43.33069
Trondheim;Trøndelag;Norway;63.42811;10.39687
Coventry;England;United Kingdom;52.40656;-1.51217
Kunming;Yunnan;China;25.03889;102.71833
Blacksburg;South Carolina;United States;35.12124;-81.51592
Blacksburg;Virginia;United States;37.22957;-80.41394
Chennai;Tamil Nadu;India;13.08784;80.27847
Rome;Lazio;Italy;41.89193;12.51133
Sambalpur;Odisha;India;21.4;83.88333
Lisbon;Guarda;Portugal;38.71666667;-9.16666667
Lisbon;Lisbon;Portugal;38.72635;-9.14843
Strasbourg;Grand-Est;France;48.58392;7.74553
Miami;Arizona;United States;33.39922;-110.86872
Miami;Florida;United States;25.77427;-80.19366
Miami;Oklahoma;United States;36.87451;-94.87746
Miami;Texas;United States;35.69143;-100.63819
Chennai;Tamil Nadu;India;13.08784;80.27847
Shanghai;Shanghai;China;31.22222;121.45806
Jinan;Shandong;China;36.66833;116.99722
Chapel Hill;North Carolina;United States;35.9132;-79.05584
Chapel Hill;Tennessee;United States;35.62646;-86.69333
Beijing;Beijing;China;39.9075;116.39723
London;England;United Kingdom;51.50853;-0.12574
Blacksburg;South Carolina;United States;35.12124;-81.51592
Blacksburg;Virginia;United States;37.22957;-80.41394
Bonn;North Rhine-Westphalia;Germany;50.73438;7.09549
Edinburgh;Scotland;United Kingdom;55.95206;-3.19648
Salem;Tamil Nadu;India;11.69;78.29
London;England;United Kingdom;51.50853;-0.12574
Rome;Lazio;Italy;41.89193;12.51133
Ann Arbor;Michigan;United States;42.27756;-83.74088
Helsinki;Uusimaa;Finland;60.16952;24.93545
Athens;Attica Region;Greece;37.98376;23.72784
Beijing;Beijing;China;39.9075;116.39723
Austin;Arkansas;United States;34.99842;-91.98376
Austin;Indiana;United States;38.75839;-85.80803
Austin;Minnesota;United States;43.66663;-92.97464
Austin;Texas;United States;30.26715;-97.74306
Seoul;Seoul;South Korea;37.566;126.9784
Jiangmen;Guangdong;China;22.58333;113.08333
Seoul;Seoul;South Korea;37.566;126.9784
Aachen;North Rhine-Westphalia;Germany;50.77664;6.08342
San Francisco;California;United States;37.77493;-122.41942
New Delhi;Delhi;India;28.63576;77.22445
Harbin;Heilongjiang;China;45.75;126.65
Qingdao;Shandong;China;36.06488;120.38042
Tokyo;Tokyo;Japan;35.6895;139.69171
Hangzhou;Zhejiang;China;30.29365;120.16142
Kongsberg;Buskerud;Norway;59.66516;9.64653
Canterbury;England;United Kingdom;51.27904;1.07992
Tianjin;Tianjin;China;39.14666667;117.20555556
Patuakhali;Barisal District;Bangladesh;22.33333;90.33333
Zhengzhou;Henan;China;34.75778;113.64861
Boston;Georgia;United States;30.79186;-83.78989
Boston;Massachusetts;United States;42.35843;-71.05977
Boston;New York;United States;42.62895;-78.73753
Chicago;Illinois;United States;41.85003;-87.65005
Hangzhou;Zhejiang;China;30.29365;120.16142
Reading;England;United Kingdom;51.45625;-0.97113
Glasgow;Scotland;United Kingdom;55.86515;-4.25763
Rockville;Connecticut;United States;41.86676;-72.44953
Rockville;Indiana;United States;39.76254;-87.22918
Rockville;Maryland;United States;39.084;-77.15276
Rockville;Minnesota;United States;45.47191;-94.34083
Stanford;California;United States;37.42411;-122.16608
Stanford;Kentucky;United States;37.53119;-84.66189
Stanford;Montana;United States;47.15358;-110.21826
Jamshoro;Sindh;Pakistan;25.43608;68.28017
Greater Noida;Uttar Pradesh;India;28.49615;77.53601
Vienna;Vienna;Austria;48.20849;16.37208
Macerata;Marche;Italy;43.29789;13.45293
Santa Barbara;California;United States;34.42083;-119.69819
Santa Barbara;Puerto Rico;United States;18.39361111;-65.91888889
Oulu;Northern Ostrobothnia;Finland;65.01236;25.46816
Chongqing;Chongqing;China;29.56278;106.55278
Paris;Île-de-France;France;48.8534;2.3486
Doha;Doha;Qatar;25.28545;51.53096
Carson;California;United States;33.83141;-118.28202
Carson;North Dakota;United States;46.41778;-101.56487
Carson;Washington;United States;45.72539;-121.81924
Turin;Piedmont;Italy;45.07049;7.68682
Vienna;Vienna;Austria;48.20849;16.37208
Urbana;Illinois;United States;40.11059;-88.20727
Urbana;Iowa;United States;42.22416;-91.87434
Urbana;Maryland;United States;39.32594;-77.35137
Urbana;Ohio;United States;40.10839;-83.75243
Chengdu;Sichuan;China;30.66667;104.06667
Potsdam;New York;United States;44.66978;-74.98131
Bengaluru;Karnataka;India;12.97194;77.59369
Bengaluru;Karnataka;India;12.97194;77.59369
Zhuzhou;Hunan;China;27.83333;113.15
Regina;Saskatchewan;Canada;50.45008;-104.6178
Phagwara;Punjab;India;31.22452;75.77387
Chennai;Tamil Nadu;India;13.08784;80.27847
Austin;Arkansas;United States;34.99842;-91.98376
Austin;Indiana;United States;38.75839;-85.80803
Austin;Minnesota;United States;43.66663;-92.97464
Austin;Texas;United States;30.26715;-97.74306
Riobamba;Chimborazo;Ecuador;-1.67098;-78.64712
Kolkata;West Bengal;India;22.54111111;88.33777778
Zhengzhou;Henan;China;34.75778;113.64861
Nairobi;Nairobi City;Kenya;-1.28333;36.81667
Aveiro;Aveiro;Portugal;40.64427;-8.64554
Doha;Doha;Qatar;25.28545;51.53096
Nanjing;Taiwan;China;32.06167;118.77778
Cairo;Cairo;Egypt;30.06263;31.24967
Florham Park;New Jersey;United States;40.78788;-74.38821
Rajkot;Gujarat;India;22.33333;70.83333
Qingdao;Shandong;China;36.06488;120.38042
Santiago;Región Metropolitana de Santiago;Chile;-33.45694;-70.64827
Baton Rouge;Louisiana;United States;30.44332;-91.18747
Corvallis;Oregon;United States;44.56457;-123.26204
Wellington;Wellington Region;New Zealand;-41.28664;174.77557
Shenzhen;Guangdong;China;22.55653;113.9859
Munich;Bavaria;Germany;48.13743;11.57549
Okayama;Okayama Prefecture;Japan;34.65;133.93333
Ljubljana;Ljubljana City Municipality;Slovenia;46.05108;14.50513
Los Angeles;California;United States;34.05223;-118.24368
Los Angeles;California;United States;34.05223;-118.24368
Toulouse;Occitanie;France;43.60426;1.44367
Hefei;Anhui;China;31.86389;117.28083
Corvallis;Oregon;United States;44.56457;-123.26204
Toronto;Ontario;Canada;43.70011;-79.4163
Edinburgh;Scotland;United Kingdom;55.95206;-3.19648
Atlanta;Georgia;United States;33.749;-84.38798
Atlanta;Illinois;United States;40.25948;-89.23342
Atlanta;Michigan;United States;45.00473;-84.14389
Atlanta;Texas;United States;33.11374;-94.16435
Bhopal;Madhya Pradesh;India;23.25469;77.40289
Dubai;Dubai;United Arab Emirates;25.0657;55.17128
Shanghai;Shanghai;China;31.22222;121.45806
Los Angeles;California;United States;34.05223;-118.24368
Silver Spring;Maryland;United States;38.99067;-77.02609
Pune;Maharashtra;India;18.51957;73.85535
Tiruchirappalli;Tamil Nadu;India;10.97;78.65
Toronto;Ontario;Canada;43.70011;-79.4163
Atlanta;Georgia;United States;33.749;-84.38798
Atlanta;Illinois;United States;40.25948;-89.23342
Atlanta;Michigan;United States;45.00473;-84.14389
Atlanta;Texas;United States;33.11374;-94.16435
London;England;United Kingdom;51.50853;-0.12574
Shenyang;Liaoning;China;41.79222;123.43278
Cambridge;England;United Kingdom;52.2;0.11667
Bengaluru;Karnataka;India;12.97194;77.59369
Beirut;Beirut Governorate;Lebanon;33.89332;35.50157
Shanghai;Shanghai;China;31.22222;121.45806
Santa Barbara;California;United States;34.42083;-119.69819
Santa Barbara;Puerto Rico;United States;18.39361111;-65.91888889
Berlin;Berlin;Germany;52.52437;13.41053
Zhengzhou;Henan;China;34.75778;113.64861
Richmond;California;United States;37.93576;-122.34775
Richmond;Illinois;United States;42.47585;-88.30593
Richmond;Indiana;United States;39.82894;-84.89024
Richmond;Kentucky;United States;37.74786;-84.29465
Richmond;Maine;United States;44.0873;-69.79893
Richmond;Massachusetts;United States;42.37314;-73.36761
Richmond;Michigan;United States;42.8092;-82.75576
Richmond;Minnesota;United States;45.45413;-94.51833
Richmond;Missouri;United States;39.27862;-93.97689
Richmond;New Hampshire;United States;42.75481;-72.27175
Richmond;Texas;United States;29.58218;-95.76078
Richmond;Utah;United States;41.92271;-111.81356
Richmond;Virginia;United States;37.55376;-77.46026
Richmond;Wisconsin;United States;42.71473;-88.74927
Hangzhou;Zhejiang;China;30.29365;120.16142
Al Kharj;Riyadh;Saudi Arabia;24.15541;47.33457
Padang;Sumatera Barat;Indonesia;-0.94924;100.35427
Chapel Hill;North Carolina;United States;35.9132;-79.05584
Chapel Hill;Tennessee;United States;35.62646;-86.69333
Handan;Hebei;China;36.60056;114.46778
Viterbo;Lazio;Italy;42.41937;12.1056
Ljubljana;Ljubljana City Municipality;Slovenia;46.05108;14.50513
Austin;Arkansas;United States;34.99842;-91.98376
Austin;Indiana;United States;38.75839;-85.80803
Austin;Minnesota;United States;43.66663;-92.97464
Austin;Texas;United States;30.26715;-97.74306
Changsha;Guizhou;China;28.68778;105.98972
Changsha;Hunan;China;28.19874;112.97087
Stanford;California;United States;37.42411;-122.16608
Stanford;Kentucky;United States;37.53119;-84.66189
Stanford;Montana;United States;47.15358;-110.21826
Chongqing;Chongqing;China;29.56278;106.55278
Chuncheon;Gangwon Province;South Korea;37.87472;127.73417
Shanghai;Shanghai;China;31.22222;121.45806
Dahlonega;Georgia;United States;34.53259;-83.98491
Vila Real;Vila Real;Portugal;41.30021;-7.73985
Naryn;Naryn Region;Kyrgyzstan;41.42866;75.99111
Auckland;Auckland Region;New Zealand;-36.84853;174.76349
Beijing;Beijing;China;39.9075;116.39723
Putian;Fujian;China;25.43944;119.01028
Koblenz;Rhineland-Palatinate;Germany;50.35357;7.57883
Oxford;England;United Kingdom;51.75222;-1.25596
Shenyang;Liaoning;China;41.79222;123.43278
Kunming;Yunnan;China;25.03889;102.71833
Changsha;Guizhou;China;28.68778;105.98972
Changsha;Hunan;China;28.19874;112.97087
Toronto;Ontario;Canada;43.70011;-79.4163
San Francisco;California;United States;37.77493;-122.41942
London;England;United Kingdom;51.50853;-0.12574
Beijing;Beijing;China;39.9075;116.39723
Piscataway;New Jersey;United States;40.49927;-74.39904
Karlskrona;Blekinge;Sweden;56.16156;15.58661
Tianjin;Tianjin;China;39.14666667;117.20555556
Madrid;Madrid;Spain;40.4165;-3.70256
Beijing;Beijing;China;39.9075;116.39723
Ha'il;Ha'il;Saudi Arabia;27.52188;41.69073
Seoul;Seoul;South Korea;37.566;126.9784
Wageningen;Gelderland;Netherlands;51.97;5.66667
Sydney;New South Wales;Australia;-33.86785;151.20732
Copenhagen;Capital Region of Denmark;Denmark;55.67594;12.56553
Fuzhou;Fujian;China;26.06139;119.30611
Rajpura;Punjab;India;30.47856;76.59284
Beijing;Beijing;China;39.9075;116.39723
Madison;Alabama;United States;34.69926;-86.74833
Madison;Connecticut;United States;41.27954;-72.59843
Madison;Florida;United States;30.46938;-83.41293
Madison;Georgia;United States;33.59568;-83.46794
Madison;Illinois;United States;38.68255;-90.15705
Madison;Indiana;United States;38.73589;-85.37996
Madison;Maine;United States;44.79756;-69.87978
Madison;Minnesota;United States;45.00968;-96.19588
Madison;Mississippi;United States;32.46181;-90.11536
Madison;Nebraska;United States;41.82834;-97.45505
Madison;New Hampshire;United States;43.89924;-71.1484
Madison;New Jersey;United States;40.75982;-74.4171
Madison;North Carolina;United States;36.38542;-79.95949
Madison;Ohio;United States;41.77116;-81.04982
Madison;South Dakota;United States;44.00608;-97.11395
Madison;Virginia;United States;38.38041;-78.2575
Madison;West Virginia;United States;38.06705;-81.81929
Madison;Wisconsin;United States;43.07305;-89.40123
Aurora;Colorado;United States;39.72943;-104.83192
Aurora;Illinois;United States;41.76058;-88.32007
Aurora;Indiana;United States;39.057;-84.90134
Aurora;Minnesota;United States;47.52993;-92.23712
Aurora;Missouri;United States;36.97089;-93.71798
Aurora;Nebraska;United States;40.86723;-98.00422
Aurora;Ohio;United States;41.31755;-81.34539
Aurora;Texas;United States;33.06068;-97.50336
Aurora;Utah;United States;38.92219;-111.93409
Brisbane;Queensland;Australia;-27.46794;153.02809
Toronto;Ontario;Canada;43.70011;-79.4163
Ruston;Louisiana;United States;32.52321;-92.63793
Oakland;California;United States;37.80437;-122.2708
Oakland;Florida;United States;28.555;-81.63313
Oakland;Iowa;United States;41.30916;-95.39667
Oakland;Maine;United States;44.54034;-69.72199
Oakland;Maryland;United States;39.40787;-79.40671
Oakland;Missouri;United States;38.57644;-90.38567
Oakland;Nebraska;United States;41.83583;-96.46697
Oakland;New Jersey;United States;41.01315;-74.26431
Oakland;Oklahoma;United States;34.1001;-96.79389
Oakland;Pennsylvania;United States;40.30646;-78.88752
Oakland;South Carolina;United States;33.98293;-80.48842
Oakland;Tennessee;United States;35.22898;-89.51508
Melbourne;Victoria;Australia;-37.814;144.96332
Shanghai;Shanghai;China;31.22222;121.45806
Daejeon;Daejeon;South Korea;36.34913;127.38493
Philadelphia;Mississippi;United States;32.77152;-89.11673
Philadelphia;New York;United States;44.1545;-75.70882
Philadelphia;Pennsylvania;United States;39.95233;-75.16379
Lanzhou;Gansu;China;36.05701;103.83987
Dhahran;Eastern Province;Saudi Arabia;26.28864;50.11396
Addis Ababa;Addis Ababa;Ethiopia;9.02497;38.74689
Nanjing;Taiwan;China;32.06167;118.77778
London;England;United Kingdom;51.50853;-0.12574
