name;state_name;country_name;latitude;longitude;citied_by;cover_date
Beijing;Beijing;China;39.9075;116.39723;0;2024-12-31
Chennai;Tamil Nadu;India;13.08784;80.27847;0;2024-12-31
Busan;Busan;South Korea;35.10168;129.03004;0;2024-12-31
Jeonju;North Jeolla Province;South Korea;35.82194;127.14889;0;2024-12-31
Semarang;Jawa Tengah;Indonesia;-6.99306;110.42083;0;2024-12-31
Dongguan;Guangdong;China;23.01797;113.74866;0;2024-12-30
Konin;Greater Poland Voivodeship;Poland;52.22338;18.25121;0;2024-12-30
London;England;United Kingdom;51.50853;-0.12574;0;2024-12-30
Glasgow;Scotland;United Kingdom;55.86515;-4.25763;0;2024-12-30
Tehran;Tehran Province;Iran;35.69439;51.42151;0;2024-12-30
Qinhuangdao;Hebei;China;39.93167;119.58833;0;2024-12-30
Boulder;Colorado;United States;40.01499;-105.27055;0;2024-12-30
Boulder;Montana;United States;46.23659;-112.12083;0;2024-12-30
Beijing;Beijing;China;39.9075;116.39723;0;2024-12-30
Aalborg;North Denmark Region;Denmark;57.048;9.9187;1;2024-12-30
Toledo;Illinois;United States;39.27365;-88.24365;3;2024-12-30
Toledo;Iowa;United States;41.99555;-92.57686;3;2024-12-30
Toledo;Ohio;United States;41.66394;-83.55521;3;2024-12-30
Toledo;Oregon;United States;44.62151;-123.93845;3;2024-12-30
Nanning;Guangxi Zhuang;China;22.81667;108.31667;0;2024-12-30
Petaling Jaya;Selangor;Malaysia;3.10726;101.60671;1;2024-12-30
Beijing;Beijing;China;39.9075;116.39723;0;2024-12-28
Weihai;Shandong;China;37.50914;122.11356;0;2024-12-27
Athens;Attica Region;Greece;37.98376;23.72784;0;2024-12-27
Indianapolis;Indiana;United States;39.76838;-86.15804;0;2024-12-26
Brisbane;Queensland;Australia;-27.46794;153.02809;0;2024-12-26
Brisbane;Queensland;Australia;-27.46794;153.02809;0;2024-12-25
Los Angeles;California;United States;34.05223;-118.24368;0;2024-12-24
Melbourne;Victoria;Australia;-37.814;144.96332;0;2024-12-23
La Tronche;Auvergne-Rhône-Alpes;France;45.20507;5.74629;0;2024-12-23
Austin;Arkansas;United States;34.99842;-91.98376;1;2024-12-23
Austin;Indiana;United States;38.75839;-85.80803;1;2024-12-23
Austin;Minnesota;United States;43.66663;-92.97464;1;2024-12-23
Austin;Texas;United States;30.26715;-97.74306;1;2024-12-23
Sydney;New South Wales;Australia;-33.86785;151.20732;3;2024-12-21
Sonipat;Haryana;India;29.0;76.91667;0;2024-12-20
Rajkot;Gujarat;India;22.33333;70.83333;0;2024-12-20
Brussels;Brussels-Capital Region;Belgium;50.85045;4.34878;0;2024-12-20
Paris;Île-de-France;France;48.8534;2.3486;1;2024-12-20
Hangzhou;Zhejiang;China;30.29365;120.16142;0;2024-12-19
Beijing;Beijing;China;39.9075;116.39723;3;2024-12-18
Nakhon Pathom;Nakhon Pathom;Thailand;13.8196;100.04427;0;2024-12-17
Jinan;Shandong;China;36.66833;116.99722;0;2024-12-17
Bologna;Emilia-Romagna;Italy;44.46667;11.43333;0;2024-12-16
Rome;Lazio;Italy;41.89193;12.51133;0;2024-12-16
Khulna;Khulna District;Bangladesh;22.5;89.33333;0;2024-12-15
Trondheim;Trøndelag;Norway;63.42811;10.39687;0;2024-12-15
Toulouse;Occitanie;France;43.60426;1.44367;0;2024-12-15
Ulsan;Ulsan;South Korea;35.53722;129.31667;0;2024-12-15
Pasadena;California;United States;34.14778;-118.14452;1;2024-12-15
Pasadena;Maryland;United States;39.10733;-76.57108;1;2024-12-15
Pasadena;Texas;United States;29.69106;-95.2091;1;2024-12-15
Philadelphia;Mississippi;United States;32.77152;-89.11673;0;2024-12-15
Philadelphia;New York;United States;44.1545;-75.70882;0;2024-12-15
Philadelphia;Pennsylvania;United States;39.95233;-75.16379;0;2024-12-15
Changsha;Guizhou;China;28.68778;105.98972;0;2024-12-15
Changsha;Hunan;China;28.19874;112.97087;0;2024-12-15
Guangzhou;Guangdong;China;23.11667;113.25;3;2024-12-15
Vilnius;Vilnius City Municipality;Lithuania;54.68916;25.2798;0;2024-12-15
Shanghai;Shanghai;China;31.22222;121.45806;1;2024-12-15
Shanghai;Shanghai;China;31.22222;121.45806;2;2024-12-15
Aachen;North Rhine-Westphalia;Germany;50.77664;6.08342;3;2024-12-15
Vancouver;British Columbia;Canada;49.24966;-123.11934;0;2024-12-14
Changchun;Jilin;China;43.88;125.32278;0;2024-12-13
Pasadena;California;United States;34.14778;-118.14452;0;2024-12-13
Pasadena;Maryland;United States;39.10733;-76.57108;0;2024-12-13
Pasadena;Texas;United States;29.69106;-95.2091;0;2024-12-13
Callaghan;New South Wales;Australia;-32.89205;151.70531;3;2024-12-12
Guangzhou;Guangdong;China;23.11667;113.25;0;2024-12-10
Pune;Maharashtra;India;18.51957;73.85535;0;2024-12-10
Langfang;Hebei;China;39.50972;116.69472;1;2024-12-10
Salem;Tamil Nadu;India;11.69;78.29;0;2024-12-10
Nanjing;Taiwan;China;32.06167;118.77778;1;2024-12-10
Athens;Attica Region;Greece;37.98376;23.72784;1;2024-12-10
Mianyang;Sichuan;China;31.46784;104.68168;0;2024-12-09
Palaiseau;Île-de-France;France;48.71828;2.2498;0;2024-12-09
Chicago;Illinois;United States;41.85003;-87.65005;1;2024-12-09
Wuhan;Hubei;China;30.58333;114.26667;0;2024-12-08
Beijing;Beijing;China;39.9075;116.39723;0;2024-12-07
Beijing;Beijing;China;39.9075;116.39723;0;2024-12-07
Dongguan;Guangdong;China;23.01797;113.74866;0;2024-12-06
Berkeley;California;United States;37.87159;-122.27275;5;2024-12-06
Berkeley;Illinois;United States;41.88892;-87.9034;5;2024-12-06
Berkeley;Missouri;United States;38.7545;-90.33123;5;2024-12-06
Philadelphia;Mississippi;United States;32.77152;-89.11673;0;2024-12-06
Philadelphia;New York;United States;44.1545;-75.70882;0;2024-12-06
Philadelphia;Pennsylvania;United States;39.95233;-75.16379;0;2024-12-06
Berkeley;California;United States;37.87159;-122.27275;0;2024-12-05
Berkeley;Illinois;United States;41.88892;-87.9034;0;2024-12-05
Berkeley;Missouri;United States;38.7545;-90.33123;0;2024-12-05
Taoyuan;Taoyuan;Taiwan;24.895;121.24611;0;2024-12-05
Guangzhou;Guangdong;China;23.11667;113.25;1;2024-12-05
Shanghai;Shanghai;China;31.22222;121.45806;0;2024-12-05
San Antonio;Florida;United States;28.33611;-82.27453;0;2024-12-04
San Antonio;Puerto Rico;United States;18.45166667;-66.94972222;0;2024-12-04
San Antonio;Texas;United States;29.42412;-98.49363;0;2024-12-04
Lausanne;Vaud;Switzerland;46.516;6.63282;1;2024-12-04
Chengdu;Sichuan;China;30.66667;104.06667;0;2024-12-03
Cuernavaca;Morelos;Mexico;18.95532;-99.24002;0;2024-12-01
Bucharest;Bucharest;Romania;44.43225;26.10626;0;2024-12-01
Lisbon;Guarda;Portugal;38.71666667;-9.16666667;0;2024-12-01
Lisbon;Lisbon;Portugal;38.72635;-9.14843;0;2024-12-01
Provo;Utah;United States;40.23384;-111.65853;0;2024-12-01
Lanzhou;Gansu;China;36.05701;103.83987;0;2024-12-01
Yogyakarta;DI Yogyakarta;Indonesia;-7.80139;110.36472;0;2024-12-01
Almaty;Almaty;Kazakhstan;43.25667;76.92861;0;2024-12-01
Beijing;Beijing;China;39.9075;116.39723;0;2024-12-01
Tandag;Bulacan;Philippines;9.06666667;126.18333333;0;2024-12-01
Tandag;Caraga;Philippines;9.07833;126.19861;0;2024-12-01
Seoul;Seoul;South Korea;37.566;126.9784;0;2024-12-01
Brownsville;Florida;United States;25.82176;-80.24116;0;2024-12-01
Brownsville;Kentucky;United States;37.19255;-86.26775;0;2024-12-01
Brownsville;Louisiana;United States;32.48709;-92.1543;0;2024-12-01
Brownsville;New York;United States;40.66094;-73.92014;0;2024-12-01
Brownsville;Oregon;United States;44.39346;-122.98481;0;2024-12-01
Brownsville;Pennsylvania;United States;40.02369;-79.88394;0;2024-12-01
Brownsville;Tennessee;United States;35.59397;-89.26229;0;2024-12-01
Brownsville;Texas;United States;25.90175;-97.49748;0;2024-12-01
Kathmandu;Central Region;Nepal;27.70169;85.3206;0;2024-12-01
Kokrajhar;Assam;India;26.6;90.2;0;2024-12-01
Arica;Arica y Parinacota;Chile;-18.4746;-70.29792;0;2024-12-01
Beijing;Beijing;China;39.9075;116.39723;0;2024-12-01
Zhengzhou;Henan;China;34.75778;113.64861;0;2024-12-01
College Station;Texas;United States;30.62798;-96.33441;0;2024-12-01
London;England;United Kingdom;51.50853;-0.12574;0;2024-12-01
Ithaca;Michigan;United States;43.2917;-84.6075;0;2024-12-01
Ithaca;New York;United States;42.44063;-76.49661;0;2024-12-01
Lima;Lima;Peru;-12.04318;-77.02824;0;2024-12-01
Ambato;Tungurahua;Ecuador;-1.24908;-78.61675;0;2024-12-01
Zhengzhou;Henan;China;34.75778;113.64861;0;2024-12-01
Barcelona;Catalonia;Spain;41.38879;2.15899;0;2024-12-01
Guangzhou;Guangdong;China;23.11667;113.25;0;2024-12-01
Sunderland;England;United Kingdom;54.90465;-1.38222;1;2024-12-01
Madrid;Madrid;Spain;40.4165;-3.70256;0;2024-12-01
Bauchi;Bauchi;Nigeria;10.31032;9.84388;0;2024-12-01
Jongno-gu;Seoul;South Korea;37.5729;126.97928;0;2024-12-01
Reston;Virginia;United States;38.96872;-77.3411;0;2024-12-01
Baghdad;Baghdad Governorate;Iraq;33.34058;44.40088;0;2024-12-01
Kumasi;Ashanti;Ghana;6.68848;-1.62443;0;2024-12-01
Athens;Attica Region;Greece;37.98376;23.72784;0;2024-12-01
Reggio Calabria;Calabria;Italy;38.11047;15.66129;1;2024-12-01
Seoul;Seoul;South Korea;37.566;126.9784;0;2024-12-01
Hangzhou;Zhejiang;China;30.29365;120.16142;0;2024-12-01
Shanghai;Shanghai;China;31.22222;121.45806;1;2024-12-01
Chengdu;Sichuan;China;30.66667;104.06667;0;2024-12-01
Sydney;New South Wales;Australia;-33.86785;151.20732;0;2024-12-01
Killybegs;Ulster;Ireland;54.63333;-8.45;0;2024-12-01
Zhengzhou;Henan;China;34.75778;113.64861;0;2024-12-01
Fuzhou;Fujian;China;26.06139;119.30611;0;2024-12-01
Callao;Callao;Peru;-12.05659;-77.11814;0;2024-12-01
Beijing;Beijing;China;39.9075;116.39723;0;2024-12-01
Zhuhai;Guangdong;China;22.27694;113.56778;0;2024-12-01
Aalborg;North Denmark Region;Denmark;57.048;9.9187;0;2024-12-01
Brussels;Brussels-Capital Region;Belgium;50.85045;4.34878;0;2024-12-01
Tianjin;Tianjin;China;39.14666667;117.20555556;0;2024-12-01
Beijing;Beijing;China;39.9075;116.39723;0;2024-12-01
Warsaw;Masovian Voivodeship;Poland;52.22977;21.01178;1;2024-12-01
Mendaro;Basque Country;Spain;43.25326;-2.38568;0;2024-12-01
Dalian;Liaoning;China;38.91222;121.60222;0;2024-12-01
Hohhot;Inner Mongolia;China;40.81056;111.65222;0;2024-12-01
Evanston;Illinois;United States;42.04114;-87.69006;0;2024-12-01
Evanston;Wyoming;United States;41.26828;-110.96324;0;2024-12-01
Lucknow;Uttar Pradesh;India;26.83928;80.92313;0;2024-12-01
Shiraz;Fars Province;Iran;29.61031;52.53113;0;2024-12-01
Talence;Nouvelle-Aquitaine;France;44.80477;-0.59543;0;2024-12-01
Quito;Pichincha;Ecuador;-0.22985;-78.52495;0;2024-12-01
Castelldefels;Catalonia;Spain;41.27794;1.97033;0;2024-12-01
Toronto;Ontario;Canada;43.70011;-79.4163;0;2024-12-01
Shenyang;Liaoning;China;41.79222;123.43278;0;2024-12-01
Purwokerto;Jawa Tengah;Indonesia;-7.42139;109.23444;0;2024-12-01
Sharjah;Sharjah Emirate;United Arab Emirates;25.33737;55.41206;0;2024-12-01
Gondar;Amhara Region;Ethiopia;12.6;37.46667;0;2024-12-01
Tehran;Tehran Province;Iran;35.69439;51.42151;0;2024-12-01
Raleigh;Mississippi;United States;32.03349;-89.52229;0;2024-12-01
Raleigh;North Carolina;United States;35.7721;-78.63861;0;2024-12-01
Kunming;Yunnan;China;25.03889;102.71833;0;2024-12-01
Beijing;Beijing;China;39.9075;116.39723;0;2024-12-01
Nanjing;Taiwan;China;32.06167;118.77778;0;2024-12-01
Islamabad;Islamabad Capital Territory;Pakistan;33.72148;73.04329;0;2024-12-01
Tallinn;Harju County;Estonia;59.43696;24.75353;0;2024-12-01
Miami;Arizona;United States;33.39922;-110.86872;0;2024-12-01
Miami;Florida;United States;25.77427;-80.19366;0;2024-12-01
Miami;Oklahoma;United States;36.87451;-94.87746;0;2024-12-01
Miami;Texas;United States;35.69143;-100.63819;0;2024-12-01
Getafe;Madrid;Spain;40.30571;-3.73295;0;2024-12-01
Indianapolis;Indiana;United States;39.76838;-86.15804;2;2024-12-01
Chengdu;Sichuan;China;30.66667;104.06667;0;2024-12-01
Tlaquepaque;Jalisco;Mexico;20.65;-103.31666667;0;2024-12-01
Tianjin;Tianjin;China;39.14666667;117.20555556;0;2024-12-01
Boca Raton;Florida;United States;26.35869;-80.0831;0;2024-12-01
Guiyang;Guizhou;China;26.58333;106.71667;0;2024-12-01
Burlington;Colorado;United States;39.30611;-102.26936;1;2024-12-01
Burlington;Iowa;United States;40.80754;-91.11292;1;2024-12-01
Burlington;Kansas;United States;38.19447;-95.74276;1;2024-12-01
Burlington;Kentucky;United States;39.02756;-84.72411;1;2024-12-01
Burlington;Massachusetts;United States;42.50482;-71.19561;1;2024-12-01
Burlington;New Jersey;United States;40.07122;-74.86489;1;2024-12-01
Burlington;North Carolina;United States;36.09569;-79.4378;1;2024-12-01
Burlington;North Dakota;United States;48.27529;-101.42878;1;2024-12-01
Burlington;Ohio;United States;38.4073;-82.53571;1;2024-12-01
Burlington;Vermont;United States;44.47588;-73.21207;1;2024-12-01
Burlington;Washington;United States;48.47566;-122.32544;1;2024-12-01
Burlington;Wisconsin;United States;42.67807;-88.2762;1;2024-12-01
Shanghai;Shanghai;China;31.22222;121.45806;0;2024-12-01
Columbia;California;United States;38.03631;-120.40131;0;2024-12-01
Columbia;Illinois;United States;38.44366;-90.20122;0;2024-12-01
Columbia;Kentucky;United States;37.10284;-85.30635;0;2024-12-01
Columbia;Louisiana;United States;32.10516;-92.07791;0;2024-12-01
Columbia;Maryland;United States;39.24038;-76.83942;0;2024-12-01
Columbia;Mississippi;United States;31.25184;-89.83758;0;2024-12-01
Columbia;Missouri;United States;38.95171;-92.33407;0;2024-12-01
Columbia;North Carolina;United States;35.91766;-76.25215;0;2024-12-01
Columbia;Pennsylvania;United States;40.03371;-76.50441;0;2024-12-01
Columbia;South Carolina;United States;34.00071;-81.03481;0;2024-12-01
Columbia;Tennessee;United States;35.61507;-87.03528;0;2024-12-01
Beijing;Beijing;China;39.9075;116.39723;0;2024-12-01
Chongqing;Chongqing;China;29.56278;106.55278;1;2024-12-01
Minna;Niger;Nigeria;9.61524;6.54776;0;2024-12-01
Beijing;Beijing;China;39.9075;116.39723;0;2024-12-01
Baltimore;Maryland;United States;39.29038;-76.61219;0;2024-12-01
Baltimore;Ohio;United States;39.84534;-82.60072;0;2024-12-01
Hamburg;Hamburg;Germany;53.57532;10.01534;0;2024-12-01
Guangzhou;Guangdong;China;23.11667;113.25;0;2024-12-01
Chennai;Tamil Nadu;India;13.08784;80.27847;0;2024-12-01
Chía;Cundinamarca;Colombia;4.84452;-74.05848;0;2024-12-01
Beijing;Beijing;China;39.9075;116.39723;0;2024-12-01
Tokyo;Tokyo;Japan;35.6895;139.69171;3;2024-12-01
Tempe;Arizona;United States;33.41477;-111.90931;0;2024-12-01
Kyoto;Kyōto Prefecture;Japan;35.02107;135.75385;0;2024-12-01
Berkeley;California;United States;37.87159;-122.27275;0;2024-12-01
Berkeley;Illinois;United States;41.88892;-87.9034;0;2024-12-01
Berkeley;Missouri;United States;38.7545;-90.33123;0;2024-12-01
London;England;United Kingdom;51.50853;-0.12574;0;2024-12-01
Vila Velha;Espírito Santo;Brazil;-20.32972;-40.2925;1;2024-12-01
Toowoomba;Queensland;Australia;-27.47958;151.47705;1;2024-12-01
Nanjing;Taiwan;China;32.06167;118.77778;0;2024-12-01
La Jolla;California;United States;32.84727;-117.2742;0;2024-12-01
Sydney;New South Wales;Australia;-33.86785;151.20732;0;2024-12-01
Ulsan;Ulsan;South Korea;35.53722;129.31667;0;2024-12-01
Coquimbo;Coquimbo;Chile;-29.95332;-71.33947;0;2024-12-01
Santa Cruz;California;United States;36.97412;-122.0308;0;2024-12-01
Jeonju;North Jeolla Province;South Korea;35.82194;127.14889;0;2024-12-01
Bloomington;California;United States;34.07029;-117.39588;0;2024-12-01
Bloomington;Illinois;United States;40.4842;-88.99369;0;2024-12-01
Bloomington;Indiana;United States;39.16533;-86.52639;0;2024-12-01
Bloomington;Minnesota;United States;44.8408;-93.29828;0;2024-12-01
Bloomington;Texas;United States;28.64777;-96.89249;0;2024-12-01
Seattle;Washington;United States;47.60621;-122.33207;0;2024-12-01
Urbana;Illinois;United States;40.11059;-88.20727;0;2024-12-01
Urbana;Iowa;United States;42.22416;-91.87434;0;2024-12-01
Urbana;Maryland;United States;39.32594;-77.35137;0;2024-12-01
Urbana;Ohio;United States;40.10839;-83.75243;0;2024-12-01
Hohhot;Inner Mongolia;China;40.81056;111.65222;0;2024-12-01
Bern;Bern;Switzerland;46.94809;7.44744;0;2024-12-01
Jammu;Jammu and Kashmir;India;32.75;74.83333;0;2024-12-01
Huangshan;Anhui;China;29.71139;118.3125;1;2024-12-01
Tuscaloosa;Alabama;United States;33.20984;-87.56917;0;2024-12-01
Brussels;Brussels-Capital Region;Belgium;50.85045;4.34878;0;2024-12-01
Manchester;England;United Kingdom;53.41667;-2.25;0;2024-12-01
Beijing;Beijing;China;39.9075;116.39723;0;2024-12-01
Lancaster;England;United Kingdom;54.04649;-2.79988;0;2024-12-01
Jiaozuo;Henan;China;35.23972;113.23306;0;2024-12-01
Yantai;Shandong;China;37.47649;121.44081;0;2024-12-01
Iwaki;Fukushima Prefecture;Japan;37.05;140.88333;1;2024-12-01
Guangzhou;Guangdong;China;23.11667;113.25;0;2024-12-01
Shenyang;Liaoning;China;41.79222;123.43278;0;2024-12-01
Fuzhou;Fujian;China;26.06139;119.30611;4;2024-12-01
Vienna;Vienna;Austria;48.20849;16.37208;0;2024-12-01
Nanjing;Taiwan;China;32.06167;118.77778;0;2024-12-01
Seoul;Seoul;South Korea;37.566;126.9784;0;2024-12-01
Dalian;Liaoning;China;38.91222;121.60222;0;2024-12-01
Melbourne;Victoria;Australia;-37.814;144.96332;0;2024-12-01
Huangshi;Hubei;China;30.24706;115.04814;0;2024-12-01
Puno;Puno;Peru;-15.8422;-70.0199;0;2024-12-01
Charlottesville;Virginia;United States;38.02931;-78.47668;0;2024-12-01
Tokyo;Tokyo;Japan;35.6895;139.69171;0;2024-12-01
Beijing;Beijing;China;39.9075;116.39723;0;2024-12-01
Dresden;Saxony;Germany;51.05089;13.73832;1;2024-12-01
Munich;Bavaria;Germany;48.13743;11.57549;0;2024-12-01
New Delhi;Delhi;India;28.63576;77.22445;0;2024-12-01
Cairo;Cairo;Egypt;30.06263;31.24967;0;2024-12-01
Dire Dawa;Dire Dawa;Ethiopia;9.59306;41.86611;1;2024-12-01
Asaba;Delta;Nigeria;6.19824;6.73187;0;2024-12-01
Alicante;Valencia;Spain;38.34517;-0.48149;0;2024-12-01
Bahir Dar;Amhara Region;Ethiopia;11.59364;37.39077;2;2024-12-01
Changsha;Guizhou;China;28.68778;105.98972;0;2024-12-01
Changsha;Hunan;China;28.19874;112.97087;0;2024-12-01
Seoul;Seoul;South Korea;37.566;126.9784;0;2024-12-01
Dalian;Liaoning;China;38.91222;121.60222;1;2024-12-01
Chongqing;Chongqing;China;29.56278;106.55278;3;2024-12-01
Baie-Comeau;Quebec;Canada;49.21679;-68.14894;2;2024-12-01
Changsha;Guizhou;China;28.68778;105.98972;0;2024-12-01
Changsha;Hunan;China;28.19874;112.97087;0;2024-12-01
Chennai;Tamil Nadu;India;13.08784;80.27847;0;2024-12-01
Changde;Hunan;China;29.04638;111.6783;0;2024-12-01
Wuhan;Hubei;China;30.58333;114.26667;4;2024-12-01
Beijing;Beijing;China;39.9075;116.39723;0;2024-12-01
Bologna;Emilia-Romagna;Italy;44.46667;11.43333;0;2024-12-01
Dublin;Leinster;Ireland;53.33306;-6.24889;1;2024-12-01
Quanzhou;Fujian;China;24.91389;118.58583;0;2024-12-01
Tehran;Tehran Province;Iran;35.69439;51.42151;0;2024-12-01
Chongqing;Chongqing;China;29.56278;106.55278;0;2024-12-01
Beijing;Beijing;China;39.9075;116.39723;0;2024-12-01
Nanjing;Taiwan;China;32.06167;118.77778;0;2024-12-01
Nanjing;Taiwan;China;32.06167;118.77778;0;2024-12-01
Dhaka;Dhaka District;Bangladesh;23.81093;90.36542;0;2024-12-01
Vellore;Tamil Nadu;India;12.86;79.035;0;2024-12-01
Tokyo;Tokyo;Japan;35.6895;139.69171;0;2024-12-01
Chiang Mai;Chiang Mai;Thailand;18.79038;98.98468;1;2024-12-01
Barranquilla;Atlántico;Colombia;10.96854;-74.78132;0;2024-12-01
Shanghai;Shanghai;China;31.22222;121.45806;4;2024-12-01
Bengaluru;Karnataka;India;12.97194;77.59369;0;2024-12-01
Ankara;Ankara;Turkey;39.91987;32.85427;0;2024-12-01
Changsha;Guizhou;China;28.68778;105.98972;0;2024-12-01
Changsha;Hunan;China;28.19874;112.97087;0;2024-12-01
Dalian;Liaoning;China;38.91222;121.60222;1;2024-12-01
Nairobi;Nairobi City;Kenya;-1.28333;36.81667;1;2024-12-01
Tetouan;Tanger-Tétouan-Al Hoceïma;Morocco;35.58333;-5.5;0;2024-12-01
Dhaka;Dhaka District;Bangladesh;23.81093;90.36542;2;2024-12-01
Tehran;Tehran Province;Iran;35.69439;51.42151;2;2024-12-01
Ahar;East Azerbaijan Province;Iran;38.4774;47.0699;1;2024-12-01
Nanjing;Taiwan;China;32.06167;118.77778;0;2024-12-01
Daejeon;Daejeon;South Korea;36.34913;127.38493;0;2024-12-01
Tamale;Northern;Ghana;9.40079;-0.8393;0;2024-12-01
Jonesboro;Arkansas;United States;35.8423;-90.70428;1;2024-12-01
Jonesboro;Georgia;United States;33.5215;-84.35381;1;2024-12-01
Jonesboro;Illinois;United States;37.45172;-89.26814;1;2024-12-01
Jonesboro;Indiana;United States;40.47976;-85.62775;1;2024-12-01
Jonesboro;Louisiana;United States;32.24127;-92.71599;1;2024-12-01
Toronto;Ontario;Canada;43.70011;-79.4163;0;2024-12-01
Shanghai;Shanghai;China;31.22222;121.45806;2;2024-12-01
Depok;DI Yogyakarta;Indonesia;-7.7625;110.43167;1;2024-12-01
Depok;Jawa Barat;Indonesia;-6.4;106.81861;1;2024-12-01
Kigali;Kigali district;Rwanda;-1.94995;30.05885;5;2024-12-01
Jiangmen;Guangdong;China;22.58333;113.08333;0;2024-12-01
Athens;Attica Region;Greece;37.98376;23.72784;0;2024-12-01
Tuscaloosa;Alabama;United States;33.20984;-87.56917;0;2024-12-01
Budapest;Budapest;Hungary;47.49835;19.04045;1;2024-12-01
Stoke-on-Trent;England;United Kingdom;53.00415;-2.18538;0;2024-12-01
Austin;Arkansas;United States;34.99842;-91.98376;0;2024-12-01
Austin;Indiana;United States;38.75839;-85.80803;0;2024-12-01
Austin;Minnesota;United States;43.66663;-92.97464;0;2024-12-01
Austin;Texas;United States;30.26715;-97.74306;0;2024-12-01
Exeter;England;United Kingdom;50.7236;-3.52751;0;2024-12-01
Nakhon Ratchasima;Nakhon Ratchasima;Thailand;14.97066;102.10196;2;2024-12-01
Austin;Arkansas;United States;34.99842;-91.98376;1;2024-12-01
Austin;Indiana;United States;38.75839;-85.80803;1;2024-12-01
Austin;Minnesota;United States;43.66663;-92.97464;1;2024-12-01
Austin;Texas;United States;30.26715;-97.74306;1;2024-12-01
Thuwal;Al Bahah;Saudi Arabia;22.28333333;39.1;0;2024-12-01
Thuwal;Makkah;Saudi Arabia;22.28333333;39.1;0;2024-12-01
Zhenjiang;Taiwan;China;32.21086;119.45508;0;2024-12-01
Irvine;California;United States;33.66946;-117.82311;0;2024-12-01
Irvine;Kentucky;United States;37.70064;-83.97381;0;2024-12-01
Bengbu;Anhui;China;32.94083;117.36083;1;2024-12-01
Malibu;California;United States;34.02577;-118.7804;0;2024-12-01
Harbin;Heilongjiang;China;45.75;126.65;1;2024-12-01
Cambridge;Illinois;United States;41.30365;-90.1929;0;2024-12-01
Cambridge;Maryland;United States;38.56317;-76.07883;0;2024-12-01
Cambridge;Massachusetts;United States;42.3751;-71.10561;0;2024-12-01
Cambridge;Minnesota;United States;45.57274;-93.22439;0;2024-12-01
Cambridge;Nebraska;United States;40.28195;-100.16569;0;2024-12-01
Cambridge;New York;United States;43.02813;-73.38122;0;2024-12-01
Cambridge;Ohio;United States;40.03118;-81.58846;0;2024-12-01
Cambridge;Wisconsin;United States;43.00361;-89.0165;0;2024-12-01
Munich;Bavaria;Germany;48.13743;11.57549;0;2024-12-01
Kirkuk;Kirkuk Governorate;Iraq;35.46806;44.39222;1;2024-12-01
Beijing;Beijing;China;39.9075;116.39723;0;2024-12-01
Beijing;Beijing;China;39.9075;116.39723;0;2024-12-01
Chongqing;Chongqing;China;29.56278;106.55278;0;2024-12-01
Sari;Mazandaran Province;Iran;36.56332;53.06009;0;2024-12-01
Bologna;Emilia-Romagna;Italy;44.46667;11.43333;0;2024-12-01
Beijing;Beijing;China;39.9075;116.39723;1;2024-12-01
Atlanta;Georgia;United States;33.749;-84.38798;4;2024-12-01
Atlanta;Illinois;United States;40.25948;-89.23342;4;2024-12-01
Atlanta;Michigan;United States;45.00473;-84.14389;4;2024-12-01
Atlanta;Texas;United States;33.11374;-94.16435;4;2024-12-01
Dubai;Dubai;United Arab Emirates;25.0657;55.17128;0;2024-12-01
Groningen;Groningen;Netherlands;53.21917;6.56667;1;2024-12-01
Seoul;Seoul;South Korea;37.566;126.9784;0;2024-12-01
Hangzhou;Zhejiang;China;30.29365;120.16142;0;2024-12-01
Berlin;Berlin;Germany;52.52437;13.41053;2;2024-12-01
Beijing;Beijing;China;39.9075;116.39723;0;2024-12-01
Wenzhou;Zhejiang;China;27.99942;120.66682;2;2024-12-01
Abuja;Abuja Federal Capital Territory;Nigeria;9.05785;7.49508;0;2024-12-01
Catanzaro;Calabria;Italy;38.88247;16.60086;1;2024-12-01
Kerman;Kerman Province;Iran;30.28321;57.07879;1;2024-12-01
Madrid;Madrid;Spain;40.4165;-3.70256;2;2024-12-01
Rome;Lazio;Italy;41.89193;12.51133;0;2024-12-01
Dhaka;Dhaka District;Bangladesh;23.81093;90.36542;19;2024-12-01
Tehran;Tehran Province;Iran;35.69439;51.42151;0;2024-12-01
Karlsruhe;Baden-Württemberg;Germany;49.00937;8.40444;1;2024-12-01
Madrid;Madrid;Spain;40.4165;-3.70256;1;2024-12-01
Shizuishan;Ningxia Huizu;China;39.23333;106.76944;1;2024-12-01
Tokyo;Tokyo;Japan;35.6895;139.69171;0;2024-12-01
Baramati;Maharashtra;India;18.15174;74.57767;1;2024-12-01
Delft;South Holland;Netherlands;52.00667;4.35556;2;2024-12-01
Tehran;Tehran Province;Iran;35.69439;51.42151;0;2024-12-01
Kalmar;Kalmar County;Sweden;56.66157;16.36163;0;2024-12-01
Gaborone;South-East District;Botswana;-24.76234;25.7995;3;2024-12-01
Chennai;Tamil Nadu;India;13.08784;80.27847;1;2024-12-01
Shanghai;Shanghai;China;31.22222;121.45806;0;2024-12-01
Balad;Saladin Governorate;Iraq;34.01485;44.14574;1;2024-12-01
Lausanne;Vaud;Switzerland;46.516;6.63282;1;2024-12-01
Shiraz;Fars Province;Iran;29.61031;52.53113;1;2024-12-01
Baltimore;Maryland;United States;39.29038;-76.61219;4;2024-12-01
Baltimore;Ohio;United States;39.84534;-82.60072;4;2024-12-01
Dhaka;Dhaka District;Bangladesh;23.81093;90.36542;0;2024-12-01
Chittoor;Andhra Pradesh;India;13.41667;79.0;0;2024-12-01
Beijing;Beijing;China;39.9075;116.39723;0;2024-12-01
Bayombong;Agusan del Norte;Philippines;16.48333333;121.15;0;2024-12-01
Bayombong;Cagayan Valley;Philippines;16.4812;121.1497;0;2024-12-01
Wuhan;Hubei;China;30.58333;114.26667;1;2024-12-01
Vadodara;Gujarat;India;22.29941;73.20812;0;2024-12-01
Cambridge;England;United Kingdom;52.2;0.11667;0;2024-12-01
Qazvin;Qazvin Province;Iran;36.26877;50.0041;2;2024-12-01
Aligarh;Uttar Pradesh;India;27.83333;78.16667;0;2024-12-01
Hamburg;Hamburg;Germany;53.57532;10.01534;0;2024-12-01
Nanchang;Jiangxi;China;28.68396;115.85306;0;2024-12-01
Miami;Arizona;United States;33.39922;-110.86872;2;2024-12-01
Miami;Florida;United States;25.77427;-80.19366;2;2024-12-01
Miami;Oklahoma;United States;36.87451;-94.87746;2;2024-12-01
Miami;Texas;United States;35.69143;-100.63819;2;2024-12-01
Bolzano;Trentino-South Tyrol;Italy;46.71667;11.5;2;2024-12-01
Manhattan;Illinois;United States;41.42253;-87.98589;0;2024-12-01
Manhattan;Kansas;United States;39.18361;-96.57167;0;2024-12-01
Manhattan;Montana;United States;45.8566;-111.33246;0;2024-12-01
Manhattan;New York;United States;40.78343;-73.96625;0;2024-12-01
Wuhan;Hubei;China;30.58333;114.26667;0;2024-12-01
Rio de Janeiro;Rio de Janeiro;Brazil;-22.92008;-43.33069;0;2024-12-01
Fairfax;California;United States;37.98715;-122.58887;1;2024-12-01
Fairfax;Iowa;United States;41.91945;-91.78101;1;2024-12-01
Fairfax;Minnesota;United States;44.52913;-94.72082;1;2024-12-01
Fairfax;Ohio;United States;39.14534;-84.39327;1;2024-12-01
Fairfax;Oklahoma;United States;36.57366;-96.7042;1;2024-12-01
Fairfax;South Carolina;United States;32.95905;-81.2365;1;2024-12-01
Fairfax;Virginia;United States;38.84622;-77.30637;1;2024-12-01
Birmingham;England;United Kingdom;52.48142;-1.89983;0;2024-12-01
Kent;Connecticut;United States;41.72482;-73.47707;1;2024-12-01
Kent;Ohio;United States;41.15367;-81.35789;1;2024-12-01
Kent;Washington;United States;47.38093;-122.23484;1;2024-12-01
Pune;Maharashtra;India;18.51957;73.85535;1;2024-12-01
Silchar;Assam;India;24.82733;92.79787;1;2024-12-01
Indore;Madhya Pradesh;India;22.66667;75.75;1;2024-12-01
Madrid;Madrid;Spain;40.4165;-3.70256;3;2024-12-01
Mataram;Nusa Tenggara Barat;Indonesia;-8.58333;116.11667;0;2024-12-01
Bangkok;Bangkok;Thailand;13.75398;100.50144;2;2024-12-01
Braga;Braga;Portugal;41.55032;-8.42005;0;2024-12-01
Seoul;Seoul;South Korea;37.566;126.9784;0;2024-12-01
Seoul;Seoul;South Korea;37.566;126.9784;0;2024-12-01
Shenzhen;Guangdong;China;22.55653;113.9859;1;2024-12-01
Pune;Maharashtra;India;18.51957;73.85535;1;2024-12-01
Tianjin;Tianjin;China;39.14666667;117.20555556;1;2024-12-01
Pavia;Lombardy;Italy;45.19205;9.15917;2;2024-12-01
Gainesville;Florida;United States;29.65163;-82.32483;0;2024-12-01
Gainesville;Georgia;United States;34.29788;-83.82407;0;2024-12-01
Gainesville;Missouri;United States;36.60312;-92.42822;0;2024-12-01
Gainesville;Texas;United States;33.62594;-97.13335;0;2024-12-01
Gainesville;Virginia;United States;38.79567;-77.61388;0;2024-12-01
Shanghai;Shanghai;China;31.22222;121.45806;0;2024-12-01
Wuhan;Hubei;China;30.58333;114.26667;1;2024-12-01
Beijing;Beijing;China;39.9075;116.39723;3;2024-12-01
Naples;Campania;Italy;40.85216;14.26811;5;2024-12-01
Lanzhou;Gansu;China;36.05701;103.83987;0;2024-12-01
Raleigh;Mississippi;United States;32.03349;-89.52229;1;2024-12-01
Raleigh;North Carolina;United States;35.7721;-78.63861;1;2024-12-01
Ahmedabad;Gujarat;India;23.02579;72.58727;1;2024-12-01
Beijing;Beijing;China;39.9075;116.39723;3;2024-12-01
Belo Horizonte;Minas Gerais;Brazil;-19.92083;-43.93778;0;2024-12-01
Atlanta;Georgia;United States;33.749;-84.38798;2;2024-12-01
Atlanta;Illinois;United States;40.25948;-89.23342;2;2024-12-01
Atlanta;Michigan;United States;45.00473;-84.14389;2;2024-12-01
Atlanta;Texas;United States;33.11374;-94.16435;2;2024-12-01
Wageningen;Gelderland;Netherlands;51.97;5.66667;1;2024-12-01
Beijing;Beijing;China;39.9075;116.39723;0;2024-12-01
Stanford;California;United States;37.42411;-122.16608;0;2024-12-01
Stanford;Kentucky;United States;37.53119;-84.66189;0;2024-12-01
Stanford;Montana;United States;47.15358;-110.21826;0;2024-12-01
Busan;Busan;South Korea;35.10168;129.03004;0;2024-12-01
Pavia;Lombardy;Italy;45.19205;9.15917;3;2024-12-01
Pucallpa;Ucayali;Peru;-8.37915;-74.55387;1;2024-12-01
Kyoto;Kyōto Prefecture;Japan;35.02107;135.75385;0;2024-12-01
Shah Alam;Selangor;Malaysia;3.08507;101.53281;1;2024-12-01
Washington, D.C.;District of Columbia;United States;38.89511;-77.03637;1;2024-12-01
Foggia;Apulia;Italy;41.45845;15.55188;1;2024-12-01
Xiamen;Fujian;China;24.47979;118.08187;2;2024-12-01
Lisbon;Guarda;Portugal;38.71666667;-9.16666667;1;2024-12-01
Lisbon;Lisbon;Portugal;38.72635;-9.14843;1;2024-12-01
Hamadan;Hamadan Province;Iran;34.8;48.51666667;0;2024-12-01
Nanjing;Taiwan;China;32.06167;118.77778;0;2024-12-01
Vancouver;British Columbia;Canada;49.24966;-123.11934;1;2024-12-01
Lviv;Lviv Oblast;Ukraine;49.83826;24.02324;0;2024-12-01
Valencia;Valencia;Spain;39.46975;-0.37739;0;2024-12-01
Bengaluru;Karnataka;India;12.97194;77.59369;0;2024-12-01
Austin;Arkansas;United States;34.99842;-91.98376;1;2024-12-01
Austin;Indiana;United States;38.75839;-85.80803;1;2024-12-01
Austin;Minnesota;United States;43.66663;-92.97464;1;2024-12-01
Austin;Texas;United States;30.26715;-97.74306;1;2024-12-01
Kurukshetra;Haryana;India;30.0;76.75;2;2024-12-01
Navi Mumbai;Maharashtra;India;19.03681;73.01582;0;2024-12-01
Naples;Campania;Italy;40.85216;14.26811;0;2024-12-01
Lanzhou;Gansu;China;36.05701;103.83987;2;2024-12-01
Rome;Lazio;Italy;41.89193;12.51133;1;2024-12-01
Yantai;Shandong;China;37.47649;121.44081;6;2024-12-01
Roorkee;Uttarakhand;India;29.86632;77.89118;1;2024-12-01
Shanghai;Shanghai;China;31.22222;121.45806;0;2024-12-01
Brussels;Brussels-Capital Region;Belgium;50.85045;4.34878;3;2024-12-01
Nanjing;Taiwan;China;32.06167;118.77778;2;2024-12-01
Columbus;Georgia;United States;32.46098;-84.98771;0;2024-12-01
Columbus;Indiana;United States;39.20144;-85.92138;0;2024-12-01
Columbus;Kansas;United States;37.16923;-94.84412;0;2024-12-01
Columbus;Minnesota;United States;45.26522;-93.05015;0;2024-12-01
Columbus;Mississippi;United States;33.49567;-88.42726;0;2024-12-01
Columbus;Montana;United States;45.63661;-109.25211;0;2024-12-01
Columbus;Nebraska;United States;41.42973;-97.36838;0;2024-12-01
Columbus;New Mexico;United States;31.8276;-107.64002;0;2024-12-01
Columbus;North Carolina;United States;35.25317;-82.19706;0;2024-12-01
Columbus;Ohio;United States;39.96118;-82.99879;0;2024-12-01
Columbus;Texas;United States;29.70662;-96.53969;0;2024-12-01
Columbus;Wisconsin;United States;43.33805;-89.01539;0;2024-12-01
Ankara;Ankara;Turkey;39.91987;32.85427;0;2024-12-01
Radolfzell;Baden-Württemberg;Germany;47.74194;8.97098;0;2024-12-01
Sharjah;Sharjah Emirate;United Arab Emirates;25.33737;55.41206;5;2024-12-01
Shanghai;Shanghai;China;31.22222;121.45806;1;2024-12-01
Richardson;Texas;United States;32.94818;-96.72972;4;2024-12-01
Hangzhou;Zhejiang;China;30.29365;120.16142;7;2024-12-01
Gombe;Gombe;Nigeria;10.28969;11.16729;0;2024-12-01
Cardiff;Wales;United Kingdom;51.48;-3.18;2;2024-12-01
Hangzhou;Zhejiang;China;30.29365;120.16142;2;2024-12-01
Bethesda;Maryland;United States;38.98067;-77.10026;2;2024-12-01
Bethesda;Ohio;United States;40.01618;-81.0726;2;2024-12-01
Visakhapatnam;Andhra Pradesh;India;17.68009;83.20161;0;2024-12-01
College Station;Texas;United States;30.62798;-96.33441;0;2024-12-01
Aveiro;Aveiro;Portugal;40.64427;-8.64554;1;2024-12-01
Berlin;Berlin;Germany;52.52437;13.41053;19;2024-12-01
Fuzhou;Fujian;China;26.06139;119.30611;5;2024-12-01
Beijing;Beijing;China;39.9075;116.39723;1;2024-12-01
Tehran;Tehran Province;Iran;35.69439;51.42151;1;2024-12-01
Iowa City;Iowa;United States;41.66113;-91.53017;1;2024-12-01
Lviv;Lviv Oblast;Ukraine;49.83826;24.02324;3;2024-12-01
Seoul;Seoul;South Korea;37.566;126.9784;1;2024-12-01
Birmingham;England;United Kingdom;52.48142;-1.89983;1;2024-12-01
Toronto;Ontario;Canada;43.70011;-79.4163;9;2024-12-01
Stockholm;Stockholm County;Sweden;59.33258;18.0649;6;2024-12-01
Portland;Connecticut;United States;41.57288;-72.64065;14;2024-12-01
Portland;Indiana;United States;40.43449;-84.97775;14;2024-12-01
Portland;Maine;United States;43.65737;-70.2589;14;2024-12-01
Portland;Michigan;United States;42.8692;-84.90305;14;2024-12-01
Portland;New York;United States;42.37978;-79.46755;14;2024-12-01
Portland;Oregon;United States;45.52345;-122.67621;14;2024-12-01
Portland;Tennessee;United States;36.58171;-86.51638;14;2024-12-01
Portland;Texas;United States;27.87725;-97.32388;14;2024-12-01
Portland;Wisconsin;United States;43.76886;-90.85819;14;2024-12-01
Bucharest;Bucharest;Romania;44.43225;26.10626;4;2024-12-01
Kristianstad;Skåne County;Sweden;56.03129;14.15242;0;2024-12-01
Pamplona;Navarra;Spain;42.81687;-1.64323;4;2024-12-01
Dalian;Liaoning;China;38.91222;121.60222;2;2024-12-01
Shanghai;Shanghai;China;31.22222;121.45806;0;2024-12-01
Fairbanks;Alaska;United States;64.83778;-147.71639;4;2024-12-01
Amsterdam;North Holland;Netherlands;52.37403;4.88969;4;2024-12-01
Gangneung;Gangwon Province;South Korea;37.75266;128.87239;0;2024-12-01
Dhaka;Dhaka District;Bangladesh;23.81093;90.36542;3;2024-12-01
Gland;Vaud;Switzerland;46.42082;6.2701;3;2024-12-01
Middlesbrough;England;United Kingdom;54.57623;-1.23483;0;2024-12-01
Beijing;Beijing;China;39.9075;116.39723;1;2024-12-01
Tiruchirappalli;Tamil Nadu;India;10.97;78.65;3;2024-12-01
Xiamen;Fujian;China;24.47979;118.08187;3;2024-12-01
Fukuoka;Fukuoka Prefecture;Japan;33.6;130.41667;5;2024-12-01
London;England;United Kingdom;51.50853;-0.12574;2;2024-12-01
Prague;Praha, Hlavní město;Czech Republic;50.08804;14.42076;0;2024-12-01
Bangkok;Bangkok;Thailand;13.75398;100.50144;4;2024-12-01
Nice;Provence-Alpes-Côte-d’Azur;France;43.70313;7.26608;0;2024-12-01
Lucca;Tuscany;Italy;43.84369;10.50447;2;2024-12-01
Lisbon;Guarda;Portugal;38.71666667;-9.16666667;7;2024-12-01
Lisbon;Lisbon;Portugal;38.72635;-9.14843;7;2024-12-01
Shanghai;Shanghai;China;31.22222;121.45806;1;2024-12-01
Trondheim;Trøndelag;Norway;63.42811;10.39687;0;2024-12-01
Buffalo;Iowa;United States;41.45642;-90.72347;1;2024-12-01
Buffalo;Minnesota;United States;45.17191;-93.87469;1;2024-12-01
Buffalo;Missouri;United States;37.64393;-93.09241;1;2024-12-01
Buffalo;New York;United States;42.88645;-78.87837;1;2024-12-01
Buffalo;Oklahoma;United States;36.83559;-99.6304;1;2024-12-01
Buffalo;South Carolina;United States;34.72569;-81.68343;1;2024-12-01
Buffalo;South Dakota;United States;45.58416;-103.54603;1;2024-12-01
Buffalo;Texas;United States;31.46379;-96.05802;1;2024-12-01
Buffalo;West Virginia;United States;38.61759;-81.9818;1;2024-12-01
Buffalo;Wyoming;United States;44.34831;-106.69894;1;2024-12-01
Los Angeles;California;United States;34.05223;-118.24368;1;2024-12-01
Shanghai;Shanghai;China;31.22222;121.45806;0;2024-11-30
Jinhua;Zhejiang;China;29.10678;119.64421;2;2024-11-30
Jinan;Shandong;China;36.66833;116.99722;0;2024-11-29
Kastamonu;Kastamonu;Turkey;41.37805;33.77528;1;2024-11-29
Pekan;Pahang;Malaysia;3.4836;103.3996;3;2024-11-29
Settat;Casablanca-Settat;Morocco;33.00103;-7.61662;2;2024-11-28
Wuhan;Hubei;China;30.58333;114.26667;0;2024-11-27
Logan;Iowa;United States;41.64305;-95.7889;0;2024-11-26
Logan;Ohio;United States;39.54007;-82.4071;0;2024-11-26
Logan;Utah;United States;41.73549;-111.83439;0;2024-11-26
Logan;West Virginia;United States;37.84871;-81.99346;0;2024-11-26
Manchester;Connecticut;United States;41.77593;-72.52148;0;2024-11-25
Manchester;Georgia;United States;32.85985;-84.61993;0;2024-11-25
Manchester;Iowa;United States;42.48415;-91.45543;0;2024-11-25
Manchester;Kentucky;United States;37.1537;-83.76186;0;2024-11-25
Manchester;Maine;United States;44.32451;-69.86033;0;2024-11-25
Manchester;Maryland;United States;39.66121;-76.88498;0;2024-11-25
Manchester;Michigan;United States;42.15032;-84.03772;0;2024-11-25
Manchester;Missouri;United States;38.597;-90.50929;0;2024-11-25
Manchester;New Hampshire;United States;42.99564;-71.45479;0;2024-11-25
Manchester;New York;United States;42.96979;-77.23026;0;2024-11-25
Manchester;Ohio;United States;38.68813;-83.60936;0;2024-11-25
Manchester;Pennsylvania;United States;40.06315;-76.7183;0;2024-11-25
Manchester;Tennessee;United States;35.48174;-86.0886;0;2024-11-25
Manchester;Washington;United States;47.55566;-122.54507;0;2024-11-25
Manchester;Wisconsin;United States;43.69054;-89.04845;0;2024-11-25
Xiangtan;Hunan;China;27.85;112.9;2;2024-11-25
Sydney;New South Wales;Australia;-33.86785;151.20732;1;2024-11-25
Loughborough;England;United Kingdom;52.76667;-1.2;0;2024-11-25
Beijing;Beijing;China;39.9075;116.39723;0;2024-11-25
Hangzhou;Zhejiang;China;30.29365;120.16142;0;2024-11-25
Changsha;Guizhou;China;28.68778;105.98972;0;2024-11-25
Changsha;Hunan;China;28.19874;112.97087;0;2024-11-25
Amsterdam;North Holland;Netherlands;52.37403;4.88969;0;2024-11-24
Dublin;Leinster;Ireland;53.33306;-6.24889;0;2024-11-24
Beijing;Beijing;China;39.9075;116.39723;0;2024-11-23
Kolkata;West Bengal;India;22.54111111;88.33777778;0;2024-11-22
Palaiseau;Île-de-France;France;48.71828;2.2498;0;2024-11-21
Wuhan;Hubei;China;30.58333;114.26667;0;2024-11-21
Redmond;Oregon;United States;44.27262;-121.17392;0;2024-11-20
Redmond;Washington;United States;47.67399;-122.12151;0;2024-11-20
Blacksburg;South Carolina;United States;35.12124;-81.51592;0;2024-11-20
Blacksburg;Virginia;United States;37.22957;-80.41394;0;2024-11-20
Harbin;Heilongjiang;China;45.75;126.65;0;2024-11-20
Taipei;Taipei;Taiwan;25.04776;121.53185;0;2024-11-20
Beijing;Beijing;China;39.9075;116.39723;1;2024-11-20
Baghdad;Baghdad Governorate;Iraq;33.34058;44.40088;0;2024-11-19
Berlin;Berlin;Germany;52.52437;13.41053;2;2024-11-19
Beijing;Beijing;China;39.9075;116.39723;0;2024-11-18
Hefei;Anhui;China;31.86389;117.28083;1;2024-11-18
Gandhinagar;Gujarat;India;23.21667;72.68333;1;2024-11-18
Stockholm;Stockholm County;Sweden;59.33258;18.0649;0;2024-11-15
Lexington;Georgia;United States;33.86984;-83.11182;0;2024-11-15
Lexington;Illinois;United States;40.64142;-88.7834;0;2024-11-15
Lexington;Kentucky;United States;37.98869;-84.47772;0;2024-11-15
Lexington;Massachusetts;United States;42.44732;-71.2245;0;2024-11-15
Lexington;Michigan;United States;43.26808;-82.53076;0;2024-11-15
Lexington;Minnesota;United States;45.14247;-93.16328;0;2024-11-15
Lexington;Mississippi;United States;33.11318;-90.05314;0;2024-11-15
Lexington;Missouri;United States;39.18473;-93.87994;0;2024-11-15
Lexington;Nebraska;United States;40.78084;-99.7415;0;2024-11-15
Lexington;North Carolina;United States;35.82403;-80.25338;0;2024-11-15
Lexington;Ohio;United States;40.67867;-82.58239;0;2024-11-15
Lexington;Oklahoma;United States;35.01479;-97.33558;0;2024-11-15
Lexington;South Carolina;United States;33.98154;-81.23621;0;2024-11-15
Lexington;Tennessee;United States;35.6509;-88.39338;0;2024-11-15
Lexington;Texas;United States;30.4191;-97.01165;0;2024-11-15
Lexington;Virginia;United States;37.78402;-79.44282;0;2024-11-15
Quezon City;Metro Manila;Philippines;14.6488;121.0509;0;2024-11-15
Quezon City;Metro Manila;Philippines;14.6488;121.0509;0;2024-11-15
Manhica;Maputo Province;Mozambique;-25.34035;32.84234;0;2024-11-15
Wuhan;Hubei;China;30.58333;114.26667;1;2024-11-15
Charlottetown;Prince Edward Island;Canada;46.23899;-63.13414;2;2024-11-15
Beijing;Beijing;China;39.9075;116.39723;0;2024-11-15
Bhimavaram;Andhra Pradesh;India;16.54078;81.52322;0;2024-11-15
Thuwal;Al Bahah;Saudi Arabia;22.28333333;39.1;0;2024-11-15
Thuwal;Makkah;Saudi Arabia;22.28333333;39.1;0;2024-11-15
Dalian;Liaoning;China;38.91222;121.60222;2;2024-11-15
Berkeley;California;United States;37.87159;-122.27275;0;2024-11-15
Berkeley;Illinois;United States;41.88892;-87.9034;0;2024-11-15
Berkeley;Missouri;United States;38.7545;-90.33123;0;2024-11-15
Bergen;Hordaland;Norway;60.392;5.328;2;2024-11-15
Hangzhou;Zhejiang;China;30.29365;120.16142;7;2024-11-15
Stanford;California;United States;37.42411;-122.16608;0;2024-11-15
Stanford;Kentucky;United States;37.53119;-84.66189;0;2024-11-15
Stanford;Montana;United States;47.15358;-110.21826;0;2024-11-15
Rome;Lazio;Italy;41.89193;12.51133;0;2024-11-14
Mandi;Himachal Pradesh;India;31.71194;76.93273;0;2024-11-14
Utrecht;Utrecht;Netherlands;52.09083;5.12222;0;2024-11-13
Chongqing;Chongqing;China;29.56278;106.55278;0;2024-11-12
Boston;Georgia;United States;30.79186;-83.78989;1;2024-11-08
Boston;Massachusetts;United States;42.35843;-71.05977;1;2024-11-08
Boston;New York;United States;42.62895;-78.73753;1;2024-11-08
London;England;United Kingdom;51.50853;-0.12574;0;2024-11-07
Coventry;England;United Kingdom;52.40656;-1.51217;0;2024-11-07
Islamabad;Islamabad Capital Territory;Pakistan;33.72148;73.04329;0;2024-11-07
Charlottesville;Virginia;United States;38.02931;-78.47668;0;2024-11-04
Davis;California;United States;38.54491;-121.74052;0;2024-11-04
Davis;Oklahoma;United States;34.50453;-97.11946;0;2024-11-04
Bologna;Emilia-Romagna;Italy;44.46667;11.43333;0;2024-11-04
Zhengzhou;Henan;China;34.75778;113.64861;0;2024-11-01
Wuhan;Hubei;China;30.58333;114.26667;0;2024-11-01
Beijing;Beijing;China;39.9075;116.39723;0;2024-11-01
Paris;Île-de-France;France;48.8534;2.3486;0;2024-11-01
Suzhou;Anhui;China;33.63611;116.97889;0;2024-11-01
Suzhou;Taiwan;China;31.30408;120.59538;0;2024-11-01
Beijing;Beijing;China;39.9075;116.39723;0;2024-11-01
Atlanta;Georgia;United States;33.749;-84.38798;0;2024-11-01
Atlanta;Illinois;United States;40.25948;-89.23342;0;2024-11-01
Atlanta;Michigan;United States;45.00473;-84.14389;0;2024-11-01
Atlanta;Texas;United States;33.11374;-94.16435;0;2024-11-01
Hangzhou;Zhejiang;China;30.29365;120.16142;0;2024-11-01
Kolkata;West Bengal;India;22.54111111;88.33777778;2;2024-11-01
Bengaluru;Karnataka;India;12.97194;77.59369;0;2024-11-01
Doha;Doha;Qatar;25.28545;51.53096;1;2024-11-01
Paris;Île-de-France;France;48.8534;2.3486;0;2024-11-01
Beijing;Beijing;China;39.9075;116.39723;0;2024-11-01
Uppsala;Uppsala County;Sweden;59.85882;17.63889;2;2024-11-01
Shenzhen;Guangdong;China;22.55653;113.9859;1;2024-11-01
Valencia;Valencia;Spain;39.46975;-0.37739;0;2024-11-01
Sevilla;Andalusia;Spain;37.38283;-5.97317;1;2024-11-01
Riyadh;Riyadh;Saudi Arabia;24.68773;46.72185;2;2024-11-01
Nanjing;Taiwan;China;32.06167;118.77778;0;2024-11-01
Huainan;Anhui;China;32.62639;116.99694;0;2024-11-01
Baton Rouge;Louisiana;United States;30.44332;-91.18747;0;2024-11-01
Coimbatore;Tamil Nadu;India;10.8;77.09;0;2024-11-01
Wuhan;Hubei;China;30.58333;114.26667;0;2024-11-01
Auckland;Auckland Region;New Zealand;-36.84853;174.76349;0;2024-11-01
Changsha;Guizhou;China;28.68778;105.98972;0;2024-11-01
Changsha;Hunan;China;28.19874;112.97087;0;2024-11-01
Olympia;Washington;United States;47.03787;-122.9007;0;2024-11-01
Lancaster;England;United Kingdom;54.04649;-2.79988;1;2024-11-01
Siena;Tuscany;Italy;43.31822;11.33064;0;2024-11-01
Furtwangen;Baden-Württemberg;Germany;48.05156;8.20715;1;2024-11-01
Auckland;Auckland Region;New Zealand;-36.84853;174.76349;0;2024-11-01
Weihai;Shandong;China;37.50914;122.11356;0;2024-11-01
Hangzhou;Zhejiang;China;30.29365;120.16142;1;2024-11-01
Lahore;Punjab;Pakistan;31.558;74.35071;0;2024-11-01
Ust-Kamenogorsk;East Kazakhstan Region;Kazakhstan;49.97143;82.60586;2;2024-11-01
Ithaca;Michigan;United States;43.2917;-84.6075;1;2024-11-01
Ithaca;New York;United States;42.44063;-76.49661;1;2024-11-01
University Park;Florida;United States;25.74649;-80.36755;0;2024-11-01
University Park;Illinois;United States;41.44298;-87.6836;0;2024-11-01
University Park;Maryland;United States;38.97039;-76.94192;0;2024-11-01
University Park;New Mexico;United States;32.28343;-106.75334;0;2024-11-01
University Park;Texas;United States;32.85013;-96.80028;0;2024-11-01
Mechelen;Flanders;Belgium;51.02574;4.47762;0;2024-11-01
Luoyang;Fujian;China;24.95938;118.683;0;2024-11-01
Luoyang;Guangdong;China;23.16244;114.27342;0;2024-11-01
Luoyang;Henan;China;34.68361;112.45361;0;2024-11-01
Fuzhou;Fujian;China;26.06139;119.30611;1;2024-11-01
Kaiserslautern;Rhineland-Palatinate;Germany;49.443;7.77161;0;2024-11-01
Washington, D.C.;District of Columbia;United States;38.89511;-77.03637;0;2024-11-01
Ghaziabad;Uttar Pradesh;India;28.66535;77.43915;0;2024-11-01
Gafsa;Gafsa Governorate;Tunisia;34.425;8.78417;0;2024-11-01
Dhaka;Dhaka District;Bangladesh;23.81093;90.36542;0;2024-11-01
Quito;Pichincha;Ecuador;-0.22985;-78.52495;0;2024-11-01
Pohang;North Gyeongsang Province;South Korea;36.02917;129.36481;0;2024-11-01
Rio de Janeiro;Rio de Janeiro;Brazil;-22.92008;-43.33069;0;2024-11-01
Itanagar;Arunachal Pradesh;India;27.08694;93.60987;0;2024-11-01
Pohang;North Gyeongsang Province;South Korea;36.02917;129.36481;0;2024-11-01
Urbana;Illinois;United States;40.11059;-88.20727;0;2024-11-01
Urbana;Iowa;United States;42.22416;-91.87434;0;2024-11-01
Urbana;Maryland;United States;39.32594;-77.35137;0;2024-11-01
Urbana;Ohio;United States;40.10839;-83.75243;0;2024-11-01
Toronto;Ontario;Canada;43.70011;-79.4163;2;2024-11-01
Edmonton;Alberta;Canada;53.55014;-113.46871;0;2024-11-01
Nanjing;Taiwan;China;32.06167;118.77778;0;2024-11-01
Cartagena;Murcia;Spain;37.60512;-0.98623;0;2024-11-01
Riyadh;Riyadh;Saudi Arabia;24.68773;46.72185;0;2024-11-01
Dalian;Liaoning;China;38.91222;121.60222;0;2024-11-01
Daejeon;Daejeon;South Korea;36.34913;127.38493;0;2024-11-01
Beijing;Beijing;China;39.9075;116.39723;0;2024-11-01
Daejeon;Daejeon;South Korea;36.34913;127.38493;0;2024-11-01
Beijing;Beijing;China;39.9075;116.39723;1;2024-11-01
Lincoln;Alabama;United States;33.61316;-86.11831;0;2024-11-01
Lincoln;Arkansas;United States;35.94953;-94.42355;0;2024-11-01
Lincoln;California;United States;38.89156;-121.29301;0;2024-11-01
Lincoln;Idaho;United States;43.51297;-111.96441;0;2024-11-01
Lincoln;Illinois;United States;40.14838;-89.36482;0;2024-11-01
Lincoln;Kansas;United States;39.04084;-98.14477;0;2024-11-01
Lincoln;Maine;United States;45.36228;-68.50502;0;2024-11-01
Lincoln;Massachusetts;United States;42.42593;-71.30395;0;2024-11-01
Lincoln;Missouri;United States;38.39086;-93.33465;0;2024-11-01
Lincoln;Montana;United States;46.95494;-112.68171;0;2024-11-01
Lincoln;Nebraska;United States;40.8;-96.66696;0;2024-11-01
Lincoln;North Dakota;United States;46.76249;-100.7004;0;2024-11-01
Lincoln;Pennsylvania;United States;40.31896;-79.85477;0;2024-11-01
Lincoln;Rhode Island;United States;41.92111;-71.435;0;2024-11-01
Lincoln;Vermont;United States;44.10589;-72.99706;0;2024-11-01
Zagreb;Zagreb;Croatia;45.81444;15.97798;0;2024-11-01
Jeddah;Al Bahah;Saudi Arabia;21.54277778;39.17277778;0;2024-11-01
Jeddah;Makkah;Saudi Arabia;21.54238;39.19797;0;2024-11-01
Berkeley;California;United States;37.87159;-122.27275;1;2024-11-01
Berkeley;Illinois;United States;41.88892;-87.9034;1;2024-11-01
Berkeley;Missouri;United States;38.7545;-90.33123;1;2024-11-01
Chongqing;Chongqing;China;29.56278;106.55278;0;2024-11-01
Varanasi;Uttar Pradesh;India;25.31668;83.01041;1;2024-11-01
East Lansing;Michigan;United States;42.73698;-84.48387;1;2024-11-01
Flagstaff;Arizona;United States;35.19807;-111.65127;0;2024-11-01
Chongqing;Chongqing;China;29.56278;106.55278;0;2024-11-01
Miami;Arizona;United States;33.39922;-110.86872;0;2024-11-01
Miami;Florida;United States;25.77427;-80.19366;0;2024-11-01
Miami;Oklahoma;United States;36.87451;-94.87746;0;2024-11-01
Miami;Texas;United States;35.69143;-100.63819;0;2024-11-01
New Brunswick;New Jersey;United States;40.48622;-74.45182;0;2024-11-01
Chengdu;Sichuan;China;30.66667;104.06667;0;2024-11-01
Southampton;England;United Kingdom;50.91667;-1.38333;0;2024-11-01
Ningbo;Zhejiang;China;29.87819;121.54945;3;2024-11-01
Fayetteville;Alabama;United States;33.14567;-86.40581;0;2024-11-01
Fayetteville;Arkansas;United States;36.06258;-94.15743;0;2024-11-01
Fayetteville;Georgia;United States;33.44873;-84.45493;0;2024-11-01
Fayetteville;New York;United States;43.02979;-76.00436;0;2024-11-01
Fayetteville;North Carolina;United States;35.05266;-78.87836;0;2024-11-01
Fayetteville;Pennsylvania;United States;39.9112;-77.54999;0;2024-11-01
Fayetteville;Tennessee;United States;35.15203;-86.57055;0;2024-11-01
Fayetteville;West Virginia;United States;38.05289;-81.10399;0;2024-11-01
Lucknow;Uttar Pradesh;India;26.83928;80.92313;0;2024-11-01
Guangzhou;Guangdong;China;23.11667;113.25;0;2024-11-01
Jinan;Shandong;China;36.66833;116.99722;0;2024-11-01
East Lansing;Michigan;United States;42.73698;-84.48387;1;2024-11-01
Wuhan;Hubei;China;30.58333;114.26667;3;2024-11-01
Wuhan;Hubei;China;30.58333;114.26667;1;2024-11-01
Barcelona;Catalonia;Spain;41.38879;2.15899;1;2024-11-01
Shanghai;Shanghai;China;31.22222;121.45806;2;2024-11-01
Bishkek;Bishkek;Kyrgyzstan;42.87;74.59;0;2024-11-01
Visakhapatnam;Andhra Pradesh;India;17.68009;83.20161;0;2024-11-01
Ningbo;Zhejiang;China;29.87819;121.54945;1;2024-11-01
Sanming;Fujian;China;26.24861;117.61861;1;2024-11-01
Victoria;Entre Ríos;Argentina;-32.61841;-60.15478;0;2024-11-01
Beijing;Beijing;China;39.9075;116.39723;1;2024-11-01
Giza;Giza;Egypt;30.00808;31.21093;1;2024-11-01
Cincinnati;Ohio;United States;39.12711;-84.51439;2;2024-11-01
New Delhi;Delhi;India;28.63576;77.22445;0;2024-11-01
Harbin;Heilongjiang;China;45.75;126.65;3;2024-11-01
Baku;Baku;Azerbaijan;40.37767;49.89201;1;2024-11-01
Seattle;Washington;United States;47.60621;-122.33207;1;2024-11-01
Madrid;Madrid;Spain;40.4165;-3.70256;0;2024-11-01
Sydney;New South Wales;Australia;-33.86785;151.20732;1;2024-11-01
Harbin;Heilongjiang;China;45.75;126.65;2;2024-11-01
Rabat;Kénitra;Morocco;34.01325;-6.83255;0;2024-11-01
Xiamen;Fujian;China;24.47979;118.08187;0;2024-11-01
Beijing;Beijing;China;39.9075;116.39723;1;2024-11-01
Shanghai;Shanghai;China;31.22222;121.45806;1;2024-11-01
Bath;England;United Kingdom;51.3751;-2.36172;0;2024-11-01
New Delhi;Delhi;India;28.63576;77.22445;0;2024-11-01
Shanghai;Shanghai;China;31.22222;121.45806;0;2024-11-01
Beijing;Beijing;China;39.9075;116.39723;0;2024-11-01
Beijing;Beijing;China;39.9075;116.39723;0;2024-11-01
Tianjin;Tianjin;China;39.14666667;117.20555556;1;2024-11-01
Guangzhou;Guangdong;China;23.11667;113.25;0;2024-11-01
Dalian;Liaoning;China;38.91222;121.60222;1;2024-11-01
Qufu;Shandong;China;35.59667;116.99111;0;2024-11-01
Williamsburg;Florida;United States;28.41445;-81.44285;1;2024-11-01
Williamsburg;Iowa;United States;41.66112;-92.00907;1;2024-11-01
Williamsburg;Kentucky;United States;36.74342;-84.15966;1;2024-11-01
Williamsburg;Massachusetts;United States;42.39314;-72.73009;1;2024-11-01
Williamsburg;New York;United States;40.71427;-73.95347;1;2024-11-01
Williamsburg;Ohio;United States;39.05423;-84.05299;1;2024-11-01
Williamsburg;Pennsylvania;United States;40.46202;-78.19973;1;2024-11-01
Williamsburg;Virginia;United States;37.2707;-76.70746;1;2024-11-01
Shanghai;Shanghai;China;31.22222;121.45806;1;2024-11-01
Shiraz;Fars Province;Iran;29.61031;52.53113;0;2024-11-01
Qufu;Shandong;China;35.59667;116.99111;1;2024-11-01
Beijing;Beijing;China;39.9075;116.39723;2;2024-11-01
Chengdu;Sichuan;China;30.66667;104.06667;2;2024-11-01
Beijing;Beijing;China;39.9075;116.39723;2;2024-11-01
Baku;Baku;Azerbaijan;40.37767;49.89201;1;2024-11-01
Ikoma;Nara Prefecture;Japan;34.68333;135.7;1;2024-11-01
Nanjing;Taiwan;China;32.06167;118.77778;0;2024-11-01
Glasgow;Scotland;United Kingdom;55.86515;-4.25763;0;2024-11-01
Rize;Rize;Turkey;41.02083;40.52194;1;2024-11-01
Edmonton;Alberta;Canada;53.55014;-113.46871;2;2024-11-01
Shenzhen;Guangdong;China;22.55653;113.9859;1;2024-11-01
Melbourne;Victoria;Australia;-37.814;144.96332;1;2024-11-01
Shanghai;Shanghai;China;31.22222;121.45806;2;2024-11-01
Silver Spring;Maryland;United States;38.99067;-77.02609;1;2024-11-01
Dodoma;Dodoma;Tanzania;-6.17221;35.73947;2;2024-11-01
Morgantown;Kentucky;United States;37.2256;-86.6836;0;2024-11-01
Morgantown;Mississippi;United States;31.57267;-91.34761;0;2024-11-01
Morgantown;West Virginia;United States;39.62953;-79.9559;0;2024-11-01
Ottawa;Ontario;Canada;45.41117;-75.69812;0;2024-11-01
Trondheim;Trøndelag;Norway;63.42811;10.39687;0;2024-11-01
Taipei;Taipei;Taiwan;25.04776;121.53185;0;2024-11-01
London;Ontario;Canada;42.98339;-81.23304;2;2024-11-01
Suzhou;Anhui;China;33.63611;116.97889;0;2024-11-01
Suzhou;Taiwan;China;31.30408;120.59538;0;2024-11-01
Beijing;Beijing;China;39.9075;116.39723;2;2024-11-01
Shanghai;Shanghai;China;31.22222;121.45806;0;2024-11-01
Getafe;Madrid;Spain;40.30571;-3.73295;0;2024-11-01
Wuhan;Hubei;China;30.58333;114.26667;0;2024-11-01
Sydney;New South Wales;Australia;-33.86785;151.20732;2;2024-11-01
Seoul;Seoul;South Korea;37.566;126.9784;0;2024-11-01
Birmingham;Alabama;United States;33.52066;-86.80249;0;2024-11-01
Birmingham;Michigan;United States;42.5467;-83.21132;0;2024-11-01
Braga;Braga;Portugal;41.55032;-8.42005;0;2024-11-01
Nanjing;Taiwan;China;32.06167;118.77778;1;2024-11-01
Xiamen;Fujian;China;24.47979;118.08187;0;2024-11-01
Stockholm;Stockholm County;Sweden;59.33258;18.0649;1;2024-11-01
Greater Noida;Uttar Pradesh;India;28.49615;77.53601;0;2024-11-01
Salt Lake City;Utah;United States;40.76078;-111.89105;0;2024-11-01
Edinburgh;Scotland;United Kingdom;55.95206;-3.19648;3;2024-11-01
Asan;South Chungcheong Province;South Korea;36.78361;127.00417;4;2024-11-01
Nanjing;Taiwan;China;32.06167;118.77778;1;2024-11-01
Tehran;Tehran Province;Iran;35.69439;51.42151;0;2024-11-01
Beijing;Beijing;China;39.9075;116.39723;9;2024-11-01
Greater Noida;Uttar Pradesh;India;28.49615;77.53601;0;2024-11-01
Berkeley;California;United States;37.87159;-122.27275;9;2024-11-01
Berkeley;Illinois;United States;41.88892;-87.9034;9;2024-11-01
Berkeley;Missouri;United States;38.7545;-90.33123;9;2024-11-01
Dublin;Leinster;Ireland;53.33306;-6.24889;0;2024-11-01
Changsha;Guizhou;China;28.68778;105.98972;0;2024-11-01
Changsha;Hunan;China;28.19874;112.97087;0;2024-11-01
Edmonton;Alberta;Canada;53.55014;-113.46871;0;2024-11-01
Oulu;Northern Ostrobothnia;Finland;65.01236;25.46816;1;2024-11-01
Atlanta;Georgia;United States;33.749;-84.38798;0;2024-11-01
Atlanta;Illinois;United States;40.25948;-89.23342;0;2024-11-01
Atlanta;Michigan;United States;45.00473;-84.14389;0;2024-11-01
Atlanta;Texas;United States;33.11374;-94.16435;0;2024-11-01
Bengaluru;Karnataka;India;12.97194;77.59369;0;2024-11-01
Santiago de Compostela;Galicia;Spain;42.88052;-8.54569;0;2024-11-01
Pittsburgh;Pennsylvania;United States;40.44062;-79.99589;2;2024-11-01
Budapest;Budapest;Hungary;47.49835;19.04045;1;2024-11-01
Logan;Iowa;United States;41.64305;-95.7889;0;2024-11-01
Logan;Ohio;United States;39.54007;-82.4071;0;2024-11-01
Logan;Utah;United States;41.73549;-111.83439;0;2024-11-01
Logan;West Virginia;United States;37.84871;-81.99346;0;2024-11-01
Oak Ridge;Florida;United States;28.47112;-81.42452;0;2024-11-01
Oak Ridge;North Carolina;United States;36.17347;-79.98893;0;2024-11-01
Oak Ridge;Tennessee;United States;36.01036;-84.26964;0;2024-11-01
Kanpur;Uttar Pradesh;India;26.46523;80.34975;3;2024-11-01
San Jose;California;United States;37.33939;-121.89496;6;2024-11-01
Nanjing;Taiwan;China;32.06167;118.77778;1;2024-11-01
Gainesville;Florida;United States;29.65163;-82.32483;2;2024-11-01
Gainesville;Georgia;United States;34.29788;-83.82407;2;2024-11-01
Gainesville;Missouri;United States;36.60312;-92.42822;2;2024-11-01
Gainesville;Texas;United States;33.62594;-97.13335;2;2024-11-01
Gainesville;Virginia;United States;38.79567;-77.61388;2;2024-11-01
St. Louis;Missouri;United States;38.62727;-90.19789;2;2024-11-01
Sanandaj;Kurdistan Province;Iran;35.31495;46.99883;3;2024-11-01
Boston;Georgia;United States;30.79186;-83.78989;1;2024-10-31
Boston;Massachusetts;United States;42.35843;-71.05977;1;2024-10-31
Boston;New York;United States;42.62895;-78.73753;1;2024-10-31
Nancy;Grand-Est;France;48.68439;6.18496;1;2024-10-31
Adelaide;South Australia;Australia;-34.92866;138.59863;4;2024-10-30
Bolzano;Trentino-South Tyrol;Italy;46.71667;11.5;4;2024-10-30
Guangzhou;Guangdong;China;23.11667;113.25;1;2024-10-30
Seattle;Washington;United States;47.60621;-122.33207;0;2024-10-29
London;England;United Kingdom;51.50853;-0.12574;0;2024-10-29
Pune;Maharashtra;India;18.51957;73.85535;0;2024-10-28
Chengdu;Sichuan;China;30.66667;104.06667;0;2024-10-28
Esch-sur-Alzette;Canton of Esch-sur-Alzette;Luxembourg;49.49583;5.98056;0;2024-10-27
Gainesville;Florida;United States;29.65163;-82.32483;0;2024-10-25
Gainesville;Georgia;United States;34.29788;-83.82407;0;2024-10-25
Gainesville;Missouri;United States;36.60312;-92.42822;0;2024-10-25
Gainesville;Texas;United States;33.62594;-97.13335;0;2024-10-25
Gainesville;Virginia;United States;38.79567;-77.61388;0;2024-10-25
Beijing;Beijing;China;39.9075;116.39723;0;2024-10-21
Pullman;Washington;United States;46.73127;-117.17962;0;2024-10-21
Canberra;Australian Capital Territory;Australia;-35.28346;149.12807;0;2024-10-21
Brisbane;Queensland;Australia;-27.46794;153.02809;0;2024-10-21
Shanghai;Shanghai;China;31.22222;121.45806;0;2024-10-21
Shanghai;Shanghai;China;31.22222;121.45806;1;2024-10-21
Shanghai;Shanghai;China;31.22222;121.45806;0;2024-10-21
Beijing;Beijing;China;39.9075;116.39723;0;2024-10-21
Menlo Park;California;United States;37.45383;-122.18219;0;2024-10-21
Seoul;Seoul;South Korea;37.566;126.9784;0;2024-10-21
Hefei;Anhui;China;31.86389;117.28083;0;2024-10-21
Redmond;Oregon;United States;44.27262;-121.17392;0;2024-10-21
Redmond;Washington;United States;47.67399;-122.12151;0;2024-10-21
Nijmegen;Gelderland;Netherlands;51.8425;5.85278;1;2024-10-21
Buffalo;Iowa;United States;41.45642;-90.72347;2;2024-10-20
Buffalo;Minnesota;United States;45.17191;-93.87469;2;2024-10-20
Buffalo;Missouri;United States;37.64393;-93.09241;2;2024-10-20
Buffalo;New York;United States;42.88645;-78.87837;2;2024-10-20
Buffalo;Oklahoma;United States;36.83559;-99.6304;2;2024-10-20
Buffalo;South Carolina;United States;34.72569;-81.68343;2;2024-10-20
Buffalo;South Dakota;United States;45.58416;-103.54603;2;2024-10-20
Buffalo;Texas;United States;31.46379;-96.05802;2;2024-10-20
Buffalo;West Virginia;United States;38.61759;-81.9818;2;2024-10-20
Buffalo;Wyoming;United States;44.34831;-106.69894;2;2024-10-20
Nanjing;Taiwan;China;32.06167;118.77778;0;2024-10-20
Maha Sarakham;Maha Sarakham;Thailand;16.18483;103.30067;0;2024-10-18
Chennai;Tamil Nadu;India;13.08784;80.27847;0;2024-10-18
Melbourne;Victoria;Australia;-37.814;144.96332;0;2024-10-18
Canberra;Australian Capital Territory;Australia;-35.28346;149.12807;1;2024-10-18
Bergen;Hordaland;Norway;60.392;5.328;1;2024-10-18
Sydney;New South Wales;Australia;-33.86785;151.20732;0;2024-10-18
Huancayo;Junín;Peru;-12.06513;-75.20486;0;2024-10-17
London;England;United Kingdom;51.50853;-0.12574;0;2024-10-16
Guangzhou;Guangdong;China;23.11667;113.25;0;2024-10-16
Shenzhen;Guangdong;China;22.55653;113.9859;0;2024-10-16
Delft;South Holland;Netherlands;52.00667;4.35556;0;2024-10-16
Changsha;Guizhou;China;28.68778;105.98972;0;2024-10-16
Changsha;Hunan;China;28.19874;112.97087;0;2024-10-16
Toulouse;Occitanie;France;43.60426;1.44367;0;2024-10-16
Granada;Andalusia;Spain;37.18817;-3.60667;0;2024-10-16
Shenzhen;Guangdong;China;22.55653;113.9859;0;2024-10-16
Liverpool;England;United Kingdom;53.41058;-2.97794;0;2024-10-16
Shanghai;Shanghai;China;31.22222;121.45806;0;2024-10-16
Utrecht;Utrecht;Netherlands;52.09083;5.12222;0;2024-10-16
Beijing;Beijing;China;39.9075;116.39723;0;2024-10-16
Paris;Île-de-France;France;48.8534;2.3486;0;2024-10-16
Seattle;Washington;United States;47.60621;-122.33207;0;2024-10-16
Leiden;South Holland;Netherlands;52.15833;4.49306;0;2024-10-16
La Jolla;California;United States;32.84727;-117.2742;1;2024-10-16
Aurangabad;Bihar;India;24.75204;84.3742;0;2024-10-15
Aurangabad;Maharashtra;India;19.88467;75.33986;0;2024-10-15
Kyiv;Kiev;Ukraine;50.45466;30.5238;0;2024-10-15
Lahore;Punjab;Pakistan;31.558;74.35071;4;2024-10-15
Chennai;Tamil Nadu;India;13.08784;80.27847;5;2024-10-15
Shanghai;Shanghai;China;31.22222;121.45806;1;2024-10-15
Wuhan;Hubei;China;30.58333;114.26667;5;2024-10-15
Chongqing;Chongqing;China;29.56278;106.55278;5;2024-10-15
College Station;Texas;United States;30.62798;-96.33441;3;2024-10-15
Waterloo;Ontario;Canada;43.4668;-80.51639;4;2024-10-15
Waterloo;Quebec;Canada;45.35008;-72.51582;4;2024-10-15
Foggia;Apulia;Italy;41.45845;15.55188;4;2024-10-15
Coventry;England;United Kingdom;52.40656;-1.51217;0;2024-10-14
College Station;Texas;United States;30.62798;-96.33441;0;2024-10-14
College Station;Texas;United States;30.62798;-96.33441;0;2024-10-14
Lexington;Georgia;United States;33.86984;-83.11182;1;2024-10-14
Lexington;Illinois;United States;40.64142;-88.7834;1;2024-10-14
Lexington;Kentucky;United States;37.98869;-84.47772;1;2024-10-14
Lexington;Massachusetts;United States;42.44732;-71.2245;1;2024-10-14
Lexington;Michigan;United States;43.26808;-82.53076;1;2024-10-14
Lexington;Minnesota;United States;45.14247;-93.16328;1;2024-10-14
Lexington;Mississippi;United States;33.11318;-90.05314;1;2024-10-14
Lexington;Missouri;United States;39.18473;-93.87994;1;2024-10-14
Lexington;Nebraska;United States;40.78084;-99.7415;1;2024-10-14
Lexington;North Carolina;United States;35.82403;-80.25338;1;2024-10-14
Lexington;Ohio;United States;40.67867;-82.58239;1;2024-10-14
Lexington;Oklahoma;United States;35.01479;-97.33558;1;2024-10-14
Lexington;South Carolina;United States;33.98154;-81.23621;1;2024-10-14
Lexington;Tennessee;United States;35.6509;-88.39338;1;2024-10-14
Lexington;Texas;United States;30.4191;-97.01165;1;2024-10-14
Lexington;Virginia;United States;37.78402;-79.44282;1;2024-10-14
Greater Noida;Uttar Pradesh;India;28.49615;77.53601;0;2024-10-11
Noida;Uttar Pradesh;India;28.58;77.33;0;2024-10-11
Guangzhou;Guangdong;China;23.11667;113.25;2;2024-10-10
Wuhan;Hubei;China;30.58333;114.26667;2;2024-10-10
Sendai;Miyagi Prefecture;Japan;38.26667;140.86667;4;2024-10-10
Beijing;Beijing;China;39.9075;116.39723;1;2024-10-10
Baku;Baku;Azerbaijan;40.37767;49.89201;2;2024-10-10
Hangzhou;Zhejiang;China;30.29365;120.16142;3;2024-10-10
Hangzhou;Zhejiang;China;30.29365;120.16142;3;2024-10-09
Tacoma;Washington;United States;47.25288;-122.44429;0;2024-10-08
London;England;United Kingdom;51.50853;-0.12574;0;2024-10-08
Redmond;Oregon;United States;44.27262;-121.17392;0;2024-10-08
Redmond;Washington;United States;47.67399;-122.12151;0;2024-10-08
Bologna;Emilia-Romagna;Italy;44.46667;11.43333;0;2024-10-08
Nijmegen;Gelderland;Netherlands;51.8425;5.85278;2;2024-10-08
Beijing;Beijing;China;39.9075;116.39723;0;2024-10-08
Muscat;Muscat Governorate;Oman;23.58413;58.40778;0;2024-10-07
Recife;Pernambuco;Brazil;-8.05389;-34.88111;0;2024-10-07
Cambridge;England;United Kingdom;52.2;0.11667;0;2024-10-05
Santiago;Región Metropolitana de Santiago;Chile;-33.45694;-70.64827;0;2024-10-05
Beijing;Beijing;China;39.9075;116.39723;3;2024-10-05
Shanghai;Shanghai;China;31.22222;121.45806;0;2024-10-02
Wuxi;Hunan;China;26.5844;111.859;0;2024-10-02
Wuxi;Taiwan;China;31.56887;120.28857;0;2024-10-02
Lexington;Georgia;United States;33.86984;-83.11182;0;2024-10-01
Lexington;Illinois;United States;40.64142;-88.7834;0;2024-10-01
Lexington;Kentucky;United States;37.98869;-84.47772;0;2024-10-01
Lexington;Massachusetts;United States;42.44732;-71.2245;0;2024-10-01
Lexington;Michigan;United States;43.26808;-82.53076;0;2024-10-01
Lexington;Minnesota;United States;45.14247;-93.16328;0;2024-10-01
Lexington;Mississippi;United States;33.11318;-90.05314;0;2024-10-01
Lexington;Missouri;United States;39.18473;-93.87994;0;2024-10-01
Lexington;Nebraska;United States;40.78084;-99.7415;0;2024-10-01
Lexington;North Carolina;United States;35.82403;-80.25338;0;2024-10-01
Lexington;Ohio;United States;40.67867;-82.58239;0;2024-10-01
Lexington;Oklahoma;United States;35.01479;-97.33558;0;2024-10-01
Lexington;South Carolina;United States;33.98154;-81.23621;0;2024-10-01
Lexington;Tennessee;United States;35.6509;-88.39338;0;2024-10-01
Lexington;Texas;United States;30.4191;-97.01165;0;2024-10-01
Lexington;Virginia;United States;37.78402;-79.44282;0;2024-10-01
Atlanta;Georgia;United States;33.749;-84.38798;0;2024-10-01
Atlanta;Illinois;United States;40.25948;-89.23342;0;2024-10-01
Atlanta;Michigan;United States;45.00473;-84.14389;0;2024-10-01
Atlanta;Texas;United States;33.11374;-94.16435;0;2024-10-01
Trujillo;La Libertad;Peru;-8.11599;-79.02998;0;2024-10-01
Hangzhou;Zhejiang;China;30.29365;120.16142;0;2024-10-01
Kabul;Kabul;Afghanistan;34.52813;69.17233;0;2024-10-01
Oldenburg;Lower Saxony;Germany;53.14118;8.21467;0;2024-10-01
Chandigarh;Chandigarh;India;30.73629;76.7884;0;2024-10-01
Indore;Madhya Pradesh;India;22.66667;75.75;0;2024-10-01
Surabaya;Jawa Timur;Indonesia;-7.24917;112.75083;0;2024-10-01
Dhahran;Eastern Province;Saudi Arabia;26.28864;50.11396;4;2024-10-01
Wuhan;Hubei;China;30.58333;114.26667;0;2024-10-01
Guangzhou;Guangdong;China;23.11667;113.25;0;2024-10-01
Tiruchirappalli;Tamil Nadu;India;10.97;78.65;0;2024-10-01
Hyderabad;Telangana;India;17.38405;78.45636;1;2024-10-01
Madrid;Madrid;Spain;40.4165;-3.70256;0;2024-10-01
Beijing;Beijing;China;39.9075;116.39723;1;2024-10-01
Tianjin;Tianjin;China;39.14666667;117.20555556;0;2024-10-01
West Lafayette;Indiana;United States;40.42587;-86.90807;1;2024-10-01
West Lafayette;Ohio;United States;40.27535;-81.75096;1;2024-10-01
Lahore;Punjab;Pakistan;31.558;74.35071;0;2024-10-01
Chennai;Tamil Nadu;India;13.08784;80.27847;1;2024-10-01
Sassari;Sardinia;Italy;40.72586;8.55552;1;2024-10-01
Amman;Amman Governorate;Jordan;31.95522;35.94503;0;2024-10-01
Pune;Maharashtra;India;18.51957;73.85535;2;2024-10-01
Tokyo;Tokyo;Japan;35.6895;139.69171;0;2024-10-01
Bengaluru;Karnataka;India;12.97194;77.59369;0;2024-10-01
Ha'il;Ha'il;Saudi Arabia;27.52188;41.69073;0;2024-10-01
Sejong;Sejong City;South Korea;36.59245;127.29223;0;2024-10-01
Beijing;Beijing;China;39.9075;116.39723;0;2024-10-01
Zhenjiang;Taiwan;China;32.21086;119.45508;0;2024-10-01
Shenyang;Liaoning;China;41.79222;123.43278;0;2024-10-01
Toowoomba;Queensland;Australia;-27.47958;151.47705;1;2024-10-01
Harbin;Heilongjiang;China;45.75;126.65;0;2024-10-01
Minneapolis;Kansas;United States;39.12194;-97.7067;0;2024-10-01
Minneapolis;Minnesota;United States;44.97997;-93.26384;0;2024-10-01
University Park;Florida;United States;25.74649;-80.36755;1;2024-10-01
University Park;Illinois;United States;41.44298;-87.6836;1;2024-10-01
University Park;Maryland;United States;38.97039;-76.94192;1;2024-10-01
University Park;New Mexico;United States;32.28343;-106.75334;1;2024-10-01
University Park;Texas;United States;32.85013;-96.80028;1;2024-10-01
Ljubljana;Ljubljana City Municipality;Slovenia;46.05108;14.50513;1;2024-10-01
Bengaluru;Karnataka;India;12.97194;77.59369;0;2024-10-01
Alexandria;Alexandria;Egypt;31.20176;29.91582;1;2024-10-01
Wuhan;Hubei;China;30.58333;114.26667;0;2024-10-01
Syracuse;Indiana;United States;41.42783;-85.75249;0;2024-10-01
Syracuse;Kansas;United States;37.98071;-101.7543;0;2024-10-01
Syracuse;Nebraska;United States;40.65722;-96.1864;0;2024-10-01
Syracuse;New York;United States;43.04812;-76.14742;0;2024-10-01
Syracuse;Utah;United States;41.08939;-112.06467;0;2024-10-01
Minneapolis;Kansas;United States;39.12194;-97.7067;0;2024-10-01
Minneapolis;Minnesota;United States;44.97997;-93.26384;0;2024-10-01
Johannesburg;Gauteng;South Africa;-26.20227;28.04363;0;2024-10-01
Busan;Busan;South Korea;35.10168;129.03004;2;2024-10-01
Portsmouth;England;United Kingdom;50.8;-1.06667;1;2024-10-01
Wuhan;Hubei;China;30.58333;114.26667;0;2024-10-01
Vellore;Tamil Nadu;India;12.86;79.035;1;2024-10-01
Mostaganem;Mostaganem;Algeria;35.93115;0.08918;0;2024-10-01
Wako;Saitama Prefecture;Japan;35.78944;139.62333;0;2024-10-01
Beijing;Beijing;China;39.9075;116.39723;1;2024-10-01
Shenyang;Liaoning;China;41.79222;123.43278;1;2024-10-01
Morgantown;Kentucky;United States;37.2256;-86.6836;0;2024-10-01
Morgantown;Mississippi;United States;31.57267;-91.34761;0;2024-10-01
Morgantown;West Virginia;United States;39.62953;-79.9559;0;2024-10-01
Hefei;Anhui;China;31.86389;117.28083;0;2024-10-01
Hangzhou;Zhejiang;China;30.29365;120.16142;1;2024-10-01
Boston;Georgia;United States;30.79186;-83.78989;1;2024-10-01
Boston;Massachusetts;United States;42.35843;-71.05977;1;2024-10-01
Boston;New York;United States;42.62895;-78.73753;1;2024-10-01
Nicosia;Nicosia District (Lefkoşa);Cyprus;35.17531;33.3642;0;2024-10-01
Chengdu;Sichuan;China;30.66667;104.06667;1;2024-10-01
Chandigarh;Chandigarh;India;30.73629;76.7884;0;2024-10-01
Nakhon Ratchasima;Nakhon Ratchasima;Thailand;14.97066;102.10196;0;2024-10-01
Beijing;Beijing;China;39.9075;116.39723;4;2024-10-01
Beijing;Beijing;China;39.9075;116.39723;0;2024-10-01
Toronto;Ontario;Canada;43.70011;-79.4163;1;2024-10-01
Kunming;Yunnan;China;25.03889;102.71833;0;2024-10-01
Oxford;England;United Kingdom;51.75222;-1.25596;1;2024-10-01
Lexington;Georgia;United States;33.86984;-83.11182;0;2024-10-01
Lexington;Illinois;United States;40.64142;-88.7834;0;2024-10-01
Lexington;Kentucky;United States;37.98869;-84.47772;0;2024-10-01
Lexington;Massachusetts;United States;42.44732;-71.2245;0;2024-10-01
Lexington;Michigan;United States;43.26808;-82.53076;0;2024-10-01
Lexington;Minnesota;United States;45.14247;-93.16328;0;2024-10-01
Lexington;Mississippi;United States;33.11318;-90.05314;0;2024-10-01
Lexington;Missouri;United States;39.18473;-93.87994;0;2024-10-01
Lexington;Nebraska;United States;40.78084;-99.7415;0;2024-10-01
Lexington;North Carolina;United States;35.82403;-80.25338;0;2024-10-01
Lexington;Ohio;United States;40.67867;-82.58239;0;2024-10-01
Lexington;Oklahoma;United States;35.01479;-97.33558;0;2024-10-01
Lexington;South Carolina;United States;33.98154;-81.23621;0;2024-10-01
Lexington;Tennessee;United States;35.6509;-88.39338;0;2024-10-01
Lexington;Texas;United States;30.4191;-97.01165;0;2024-10-01
Lexington;Virginia;United States;37.78402;-79.44282;0;2024-10-01
Taiyuan;Shanxi;China;37.86944;112.56028;0;2024-10-01
Shanghai;Shanghai;China;31.22222;121.45806;1;2024-10-01
Wuxi;Hunan;China;26.5844;111.859;0;2024-10-01
Wuxi;Taiwan;China;31.56887;120.28857;0;2024-10-01
Beijing;Beijing;China;39.9075;116.39723;3;2024-10-01
Mannheim;Baden-Württemberg;Germany;49.4891;8.46694;4;2024-10-01
Tlemcen;Tlemcen;Algeria;34.87833;-1.315;0;2024-10-01
Cleveland;Alabama;United States;33.99093;-86.57749;0;2024-10-01
Cleveland;Florida;United States;26.96173;-81.98398;0;2024-10-01
Cleveland;Georgia;United States;34.59704;-83.76324;0;2024-10-01
Cleveland;Mississippi;United States;33.744;-90.72482;0;2024-10-01
Cleveland;Ohio;United States;41.4995;-81.69541;0;2024-10-01
Cleveland;Oklahoma;United States;36.31032;-96.46584;0;2024-10-01
Cleveland;Tennessee;United States;35.15952;-84.87661;0;2024-10-01
Cleveland;Texas;United States;30.34132;-95.08549;0;2024-10-01
Cleveland;Wisconsin;United States;43.91499;-87.74731;0;2024-10-01
Lucca;Tuscany;Italy;43.84369;10.50447;0;2024-10-01
Davis;California;United States;38.54491;-121.74052;0;2024-10-01
Davis;Oklahoma;United States;34.50453;-97.11946;0;2024-10-01
Atlanta;Georgia;United States;33.749;-84.38798;0;2024-10-01
Atlanta;Illinois;United States;40.25948;-89.23342;0;2024-10-01
Atlanta;Michigan;United States;45.00473;-84.14389;0;2024-10-01
Atlanta;Texas;United States;33.11374;-94.16435;0;2024-10-01
Shanghai;Shanghai;China;31.22222;121.45806;0;2024-10-01
Shanghai;Shanghai;China;31.22222;121.45806;3;2024-10-01
Sassari;Sardinia;Italy;40.72586;8.55552;1;2024-10-01
Manchester;England;United Kingdom;53.41667;-2.25;0;2024-10-01
Belgrade;Central Banat District;Serbia;44.80401;20.46513;1;2024-10-01
Sydney;New South Wales;Australia;-33.86785;151.20732;0;2024-10-01
Shanghai;Shanghai;China;31.22222;121.45806;0;2024-10-01
Edinburgh;Scotland;United Kingdom;55.95206;-3.19648;2;2024-10-01
Geneseo;Illinois;United States;41.44809;-90.15428;1;2024-10-01
Geneseo;New York;United States;42.7959;-77.81695;1;2024-10-01
Dresden;Saxony;Germany;51.05089;13.73832;0;2024-10-01
Arlington;Georgia;United States;31.4399;-84.72492;8;2024-10-01
Arlington;Maryland;United States;39.34857;-76.68324;8;2024-10-01
Arlington;Massachusetts;United States;42.41537;-71.15644;8;2024-10-01
Arlington;Minnesota;United States;44.6083;-94.08053;8;2024-10-01
Arlington;Nebraska;United States;41.4525;-96.35113;8;2024-10-01
Arlington;New York;United States;41.69593;-73.8968;8;2024-10-01
Arlington;Ohio;United States;40.89366;-83.65021;8;2024-10-01
Arlington;Tennessee;United States;35.2962;-89.66147;8;2024-10-01
Arlington;Texas;United States;32.73569;-97.10807;8;2024-10-01
Arlington;Vermont;United States;43.0748;-73.154;8;2024-10-01
Arlington;Virginia;United States;38.88101;-77.10428;8;2024-10-01
Arlington;Washington;United States;48.19871;-122.12514;8;2024-10-01
Chía;Cundinamarca;Colombia;4.84452;-74.05848;3;2024-10-01
Lucca;Tuscany;Italy;43.84369;10.50447;3;2024-10-01
Tehran;Tehran Province;Iran;35.69439;51.42151;1;2024-10-01
Shenyang;Liaoning;China;41.79222;123.43278;0;2024-10-01
Frankfurt am Main;Hesse;Germany;50.11552;8.68417;2;2024-10-01
Changsha;Guizhou;China;28.68778;105.98972;0;2024-10-01
Changsha;Hunan;China;28.19874;112.97087;0;2024-10-01
Hangzhou;Zhejiang;China;30.29365;120.16142;4;2024-10-01
Delft;South Holland;Netherlands;52.00667;4.35556;1;2024-10-01
Ames;Iowa;United States;42.03471;-93.61994;3;2024-10-01
Ames;Texas;United States;30.05383;-94.74353;3;2024-10-01
Binghamton;New York;United States;42.09869;-75.91797;0;2024-10-01
Huddersfield;England;United Kingdom;53.64904;-1.78416;0;2024-10-01
Urbana;Illinois;United States;40.11059;-88.20727;0;2024-10-01
Urbana;Iowa;United States;42.22416;-91.87434;0;2024-10-01
Urbana;Maryland;United States;39.32594;-77.35137;0;2024-10-01
Urbana;Ohio;United States;40.10839;-83.75243;0;2024-10-01
Beijing;Beijing;China;39.9075;116.39723;4;2024-10-01
Beijing;Beijing;China;39.9075;116.39723;1;2024-10-01
Changsha;Guizhou;China;28.68778;105.98972;1;2024-10-01
Changsha;Hunan;China;28.19874;112.97087;1;2024-10-01
Beijing;Beijing;China;39.9075;116.39723;3;2024-10-01
Bellevue;Idaho;United States;43.46352;-114.2606;3;2024-10-01
Bellevue;Illinois;United States;40.68448;-89.6801;3;2024-10-01
Bellevue;Iowa;United States;42.25863;-90.42291;3;2024-10-01
Bellevue;Kentucky;United States;39.10645;-84.47883;3;2024-10-01
Bellevue;Michigan;United States;42.44337;-85.01805;3;2024-10-01
Bellevue;Nebraska;United States;41.13667;-95.89084;3;2024-10-01
Bellevue;Ohio;United States;41.27366;-82.84158;3;2024-10-01
Bellevue;Pennsylvania;United States;40.49396;-80.05172;3;2024-10-01
Bellevue;Washington;United States;47.61038;-122.20068;3;2024-10-01
Bellevue;Wisconsin;United States;44.44416;-87.9201;3;2024-10-01
London;England;United Kingdom;51.50853;-0.12574;1;2024-10-01
Kafin Hausa;Jigawa;Nigeria;12.23933;9.91105;1;2024-10-01
Brighton;England;United Kingdom;50.82838;-0.13947;0;2024-10-01
Birmingham;England;United Kingdom;52.48142;-1.89983;1;2024-10-01
Chennai;Tamil Nadu;India;13.08784;80.27847;0;2024-10-01
Kollam;Kerala;India;8.88113;76.58469;3;2024-10-01
Kunming;Yunnan;China;25.03889;102.71833;3;2024-10-01
Munich;Bavaria;Germany;48.13743;11.57549;6;2024-10-01
Beijing;Beijing;China;39.9075;116.39723;1;2024-10-01
Santiago;Región Metropolitana de Santiago;Chile;-33.45694;-70.64827;1;2024-10-01
Chongqing;Chongqing;China;29.56278;106.55278;4;2024-10-01
Changchun;Jilin;China;43.88;125.32278;2;2024-10-01
Tuscaloosa;Alabama;United States;33.20984;-87.56917;3;2024-10-01
Tiruchirappalli;Tamil Nadu;India;10.97;78.65;1;2024-10-01
Taiyuan;Shanxi;China;37.86944;112.56028;0;2024-10-01
Tianjin;Tianjin;China;39.14666667;117.20555556;1;2024-10-01
Kerman;Kerman Province;Iran;30.28321;57.07879;6;2024-10-01
Maynooth;Leinster;Ireland;53.385;-6.59361;0;2024-10-01
Beijing;Beijing;China;39.9075;116.39723;5;2024-10-01
Athens;Attica Region;Greece;37.98376;23.72784;0;2024-10-01
Wuhan;Hubei;China;30.58333;114.26667;4;2024-10-01
Nanjing;Taiwan;China;32.06167;118.77778;7;2024-10-01
Harbin;Heilongjiang;China;45.75;126.65;2;2024-10-01
Beijing;Beijing;China;39.9075;116.39723;1;2024-10-01
Chengdu;Sichuan;China;30.66667;104.06667;0;2024-10-01
Aizawl;Mizoram;India;23.8;92.9;3;2024-10-01
Chennai;Tamil Nadu;India;13.08784;80.27847;2;2024-10-01
Washington, D.C.;District of Columbia;United States;38.89511;-77.03637;0;2024-10-01
Abha;'Asir;Saudi Arabia;18.21639;42.50528;0;2024-10-01
Abha;Makkah;Saudi Arabia;18.21666667;42.5;0;2024-10-01
Hangzhou;Zhejiang;China;30.29365;120.16142;0;2024-10-01
Gainesville;Florida;United States;29.65163;-82.32483;0;2024-10-01
Gainesville;Georgia;United States;34.29788;-83.82407;0;2024-10-01
Gainesville;Missouri;United States;36.60312;-92.42822;0;2024-10-01
Gainesville;Texas;United States;33.62594;-97.13335;0;2024-10-01
Gainesville;Virginia;United States;38.79567;-77.61388;0;2024-10-01
Cali;Valle del Cauca;Colombia;3.41033;-76.58097;0;2024-10-01
Quezon City;Metro Manila;Philippines;14.6488;121.0509;0;2024-10-01
Queens;New York;United States;40.68149;-73.83652;3;2024-10-01
University Park;Florida;United States;25.74649;-80.36755;3;2024-10-01
University Park;Illinois;United States;41.44298;-87.6836;3;2024-10-01
University Park;Maryland;United States;38.97039;-76.94192;3;2024-10-01
University Park;New Mexico;United States;32.28343;-106.75334;3;2024-10-01
University Park;Texas;United States;32.85013;-96.80028;3;2024-10-01
Boston;Georgia;United States;30.79186;-83.78989;0;2024-10-01
Boston;Massachusetts;United States;42.35843;-71.05977;0;2024-10-01
Boston;New York;United States;42.62895;-78.73753;0;2024-10-01
Pretoria;Gauteng;South Africa;-25.74486;28.18783;2;2024-10-01
New Delhi;Delhi;India;28.63576;77.22445;0;2024-10-01
Changsha;Guizhou;China;28.68778;105.98972;5;2024-10-01
Changsha;Hunan;China;28.19874;112.97087;5;2024-10-01
Rome;Lazio;Italy;41.89193;12.51133;0;2024-10-01
Shanghai;Shanghai;China;31.22222;121.45806;0;2024-10-01
Seoul;Seoul;South Korea;37.566;126.9784;4;2024-10-01
Liverpool;England;United Kingdom;53.41058;-2.97794;1;2024-10-01
Beijing;Beijing;China;39.9075;116.39723;1;2024-10-01
Edmonton;Alberta;Canada;53.55014;-113.46871;0;2024-10-01
Yazd;Yazd Province;Iran;31.89722;54.3675;2;2024-10-01
Nanjing;Taiwan;China;32.06167;118.77778;0;2024-09-30
Nancy;Grand-Est;France;48.68439;6.18496;0;2024-09-30
Hangzhou;Zhejiang;China;30.29365;120.16142;2;2024-09-30
Beijing;Beijing;China;39.9075;116.39723;0;2024-09-30
Shenzhen;Guangdong;China;22.55653;113.9859;3;2024-09-30
Tempe;Arizona;United States;33.41477;-111.90931;2;2024-09-28
Syracuse;Indiana;United States;41.42783;-85.75249;0;2024-09-25
Syracuse;Kansas;United States;37.98071;-101.7543;0;2024-09-25
Syracuse;Nebraska;United States;40.65722;-96.1864;0;2024-09-25
Syracuse;New York;United States;43.04812;-76.14742;0;2024-09-25
Syracuse;Utah;United States;41.08939;-112.06467;0;2024-09-25
Beijing;Beijing;China;39.9075;116.39723;1;2024-09-25
Fukuoka;Fukuoka Prefecture;Japan;33.6;130.41667;0;2024-09-25
Callaghan;New South Wales;Australia;-32.89205;151.70531;5;2024-09-23
Riyadh;Riyadh;Saudi Arabia;24.68773;46.72185;0;2024-09-20
Houghton;Michigan;United States;47.12187;-88.56901;0;2024-09-20
Houghton;New York;United States;42.4234;-78.15723;0;2024-09-20
Barcelona;Catalonia;Spain;41.38879;2.15899;6;2024-09-20
Boston;Georgia;United States;30.79186;-83.78989;1;2024-09-20
Boston;Massachusetts;United States;42.35843;-71.05977;1;2024-09-20
Boston;New York;United States;42.62895;-78.73753;1;2024-09-20
Amsterdam;North Holland;Netherlands;52.37403;4.88969;0;2024-09-19
Edinburgh;Scotland;United Kingdom;55.95206;-3.19648;0;2024-09-16
Nanjing;Taiwan;China;32.06167;118.77778;0;2024-09-15
Doha;Doha;Qatar;25.28545;51.53096;11;2024-09-15
Wuhan;Hubei;China;30.58333;114.26667;4;2024-09-15
Baltimore;Maryland;United States;39.29038;-76.61219;1;2024-09-15
Baltimore;Ohio;United States;39.84534;-82.60072;1;2024-09-15
Hangzhou;Zhejiang;China;30.29365;120.16142;1;2024-09-15
Jinan;Shandong;China;36.66833;116.99722;4;2024-09-15
Zhengzhou;Henan;China;34.75778;113.64861;2;2024-09-15
Beijing;Beijing;China;39.9075;116.39723;1;2024-09-15
Dalian;Liaoning;China;38.91222;121.60222;4;2024-09-15
Madison;Alabama;United States;34.69926;-86.74833;0;2024-09-15
Madison;Connecticut;United States;41.27954;-72.59843;0;2024-09-15
Madison;Florida;United States;30.46938;-83.41293;0;2024-09-15
Madison;Georgia;United States;33.59568;-83.46794;0;2024-09-15
Madison;Illinois;United States;38.68255;-90.15705;0;2024-09-15
Madison;Indiana;United States;38.73589;-85.37996;0;2024-09-15
Madison;Maine;United States;44.79756;-69.87978;0;2024-09-15
Madison;Minnesota;United States;45.00968;-96.19588;0;2024-09-15
Madison;Mississippi;United States;32.46181;-90.11536;0;2024-09-15
Madison;Nebraska;United States;41.82834;-97.45505;0;2024-09-15
Madison;New Hampshire;United States;43.89924;-71.1484;0;2024-09-15
Madison;New Jersey;United States;40.75982;-74.4171;0;2024-09-15
Madison;North Carolina;United States;36.38542;-79.95949;0;2024-09-15
Madison;Ohio;United States;41.77116;-81.04982;0;2024-09-15
Madison;South Dakota;United States;44.00608;-97.11395;0;2024-09-15
Madison;Virginia;United States;38.38041;-78.2575;0;2024-09-15
Madison;West Virginia;United States;38.06705;-81.81929;0;2024-09-15
Madison;Wisconsin;United States;43.07305;-89.40123;0;2024-09-15
Lausanne;Vaud;Switzerland;46.516;6.63282;0;2024-09-14
Bangkok;Bangkok;Thailand;13.75398;100.50144;0;2024-09-14
Aurora;Colorado;United States;39.72943;-104.83192;1;2024-09-13
Aurora;Illinois;United States;41.76058;-88.32007;1;2024-09-13
Aurora;Indiana;United States;39.057;-84.90134;1;2024-09-13
Aurora;Minnesota;United States;47.52993;-92.23712;1;2024-09-13
Aurora;Missouri;United States;36.97089;-93.71798;1;2024-09-13
Aurora;Nebraska;United States;40.86723;-98.00422;1;2024-09-13
Aurora;Ohio;United States;41.31755;-81.34539;1;2024-09-13
Aurora;Texas;United States;33.06068;-97.50336;1;2024-09-13
Aurora;Utah;United States;38.92219;-111.93409;1;2024-09-13
Chennai;Tamil Nadu;India;13.08784;80.27847;2;2024-09-12
Rennes;Bretagne;France;48.11198;-1.67429;0;2024-09-11
Beijing;Beijing;China;39.9075;116.39723;0;2024-09-10
Nanjing;Taiwan;China;32.06167;118.77778;1;2024-09-10
Columbus;Georgia;United States;32.46098;-84.98771;0;2024-09-09
Columbus;Indiana;United States;39.20144;-85.92138;0;2024-09-09
Columbus;Kansas;United States;37.16923;-94.84412;0;2024-09-09
Columbus;Minnesota;United States;45.26522;-93.05015;0;2024-09-09
Columbus;Mississippi;United States;33.49567;-88.42726;0;2024-09-09
Columbus;Montana;United States;45.63661;-109.25211;0;2024-09-09
Columbus;Nebraska;United States;41.42973;-97.36838;0;2024-09-09
Columbus;New Mexico;United States;31.8276;-107.64002;0;2024-09-09
Columbus;North Carolina;United States;35.25317;-82.19706;0;2024-09-09
Columbus;Ohio;United States;39.96118;-82.99879;0;2024-09-09
Columbus;Texas;United States;29.70662;-96.53969;0;2024-09-09
Columbus;Wisconsin;United States;43.33805;-89.01539;0;2024-09-09
Leeds;England;United Kingdom;53.79648;-1.54785;25;2024-09-05
Changchun;Jilin;China;43.88;125.32278;5;2024-09-05
Hangzhou;Zhejiang;China;30.29365;120.16142;0;2024-09-05
Nashik;Maharashtra;India;19.99727;73.79096;0;2024-09-03
West Lafayette;Indiana;United States;40.42587;-86.90807;0;2024-09-01
West Lafayette;Ohio;United States;40.27535;-81.75096;0;2024-09-01
Trondheim;Trøndelag;Norway;63.42811;10.39687;0;2024-09-01
Adelaide;South Australia;Australia;-34.92866;138.59863;0;2024-09-01
Nanjing;Taiwan;China;32.06167;118.77778;0;2024-09-01
Beijing;Beijing;China;39.9075;116.39723;0;2024-09-01
Beijing;Beijing;China;39.9075;116.39723;0;2024-09-01
Cincinnati;Ohio;United States;39.12711;-84.51439;0;2024-09-01
Wuhan;Hubei;China;30.58333;114.26667;1;2024-09-01
Butare;Southern Province;Rwanda;-2.59667;29.73944;0;2024-09-01
Erlangen;Bavaria;Germany;49.59099;11.00783;0;2024-09-01
Lanzhou;Gansu;China;36.05701;103.83987;1;2024-09-01
Hohhot;Inner Mongolia;China;40.81056;111.65222;1;2024-09-01
Valencia;Valencia;Spain;39.46975;-0.37739;1;2024-09-01
Rio de Janeiro;Rio de Janeiro;Brazil;-22.92008;-43.33069;0;2024-09-01
Suzhou;Anhui;China;33.63611;116.97889;0;2024-09-01
Suzhou;Taiwan;China;31.30408;120.59538;0;2024-09-01
Taipei;Taipei;Taiwan;25.04776;121.53185;0;2024-09-01
Stavanger;Rogaland;Norway;58.96941;5.72856;0;2024-09-01
Shanghai;Shanghai;China;31.22222;121.45806;4;2024-09-01
Beijing;Beijing;China;39.9075;116.39723;1;2024-09-01
Cergy-Pontoise;Île-de-France;France;49.03894;2.07805;0;2024-09-01
Helsinki;Uusimaa;Finland;60.16952;24.93545;0;2024-09-01
Changchun;Jilin;China;43.88;125.32278;0;2024-09-01
Guangzhou;Guangdong;China;23.11667;113.25;1;2024-09-01
Chongqing;Chongqing;China;29.56278;106.55278;2;2024-09-01
Volos;Lefkada Regional Unit;Greece;39.36103;22.94248;1;2024-09-01
Harbin;Heilongjiang;China;45.75;126.65;0;2024-09-01
Amsterdam;North Holland;Netherlands;52.37403;4.88969;0;2024-09-01
Gongju;South Chungcheong Province;South Korea;36.45556;127.12472;0;2024-09-01
Urbana;Illinois;United States;40.11059;-88.20727;26;2024-09-01
Urbana;Iowa;United States;42.22416;-91.87434;26;2024-09-01
Urbana;Maryland;United States;39.32594;-77.35137;26;2024-09-01
Urbana;Ohio;United States;40.10839;-83.75243;26;2024-09-01
Bengaluru;Karnataka;India;12.97194;77.59369;0;2024-09-01
Fuzhou;Fujian;China;26.06139;119.30611;0;2024-09-01
Knoxville;Georgia;United States;32.72431;-83.99769;0;2024-09-01
Knoxville;Illinois;United States;40.90837;-90.28485;0;2024-09-01
Knoxville;Iowa;United States;41.32083;-93.10937;0;2024-09-01
Knoxville;Tennessee;United States;35.96064;-83.92074;0;2024-09-01
Wuhan;Hubei;China;30.58333;114.26667;0;2024-09-01
Seattle;Washington;United States;47.60621;-122.33207;0;2024-09-01
Knoxville;Georgia;United States;32.72431;-83.99769;1;2024-09-01
Knoxville;Illinois;United States;40.90837;-90.28485;1;2024-09-01
Knoxville;Iowa;United States;41.32083;-93.10937;1;2024-09-01
Knoxville;Tennessee;United States;35.96064;-83.92074;1;2024-09-01
Bhagalpur;Bihar;India;25.29023;87.06665;0;2024-09-01
Tarapoto;San Martín;Peru;-6.50139;-76.36556;0;2024-09-01
Beijing;Beijing;China;39.9075;116.39723;0;2024-09-01
Colchester;England;United Kingdom;51.88921;0.90421;0;2024-09-01
Shanghai;Shanghai;China;31.22222;121.45806;2;2024-09-01
Shenyang;Liaoning;China;41.79222;123.43278;4;2024-09-01
Lanzhou;Gansu;China;36.05701;103.83987;1;2024-09-01
Tempe;Arizona;United States;33.41477;-111.90931;1;2024-09-01
Changsha;Guizhou;China;28.68778;105.98972;0;2024-09-01
Changsha;Hunan;China;28.19874;112.97087;0;2024-09-01
Badajoz;Extremadura;Spain;38.87789;-6.97061;0;2024-09-01
Beijing;Beijing;China;39.9075;116.39723;5;2024-09-01
Beijing;Beijing;China;39.9075;116.39723;0;2024-09-01
Milan;Lombardy;Italy;45.46427;9.18951;0;2024-09-01
Albany;California;United States;37.88687;-122.29775;1;2024-09-01
Albany;Georgia;United States;31.57851;-84.15574;1;2024-09-01
Albany;Indiana;United States;40.30088;-85.24191;1;2024-09-01
Albany;Kentucky;United States;36.6909;-85.13468;1;2024-09-01
Albany;Louisiana;United States;30.50436;-90.58231;1;2024-09-01
Albany;Minnesota;United States;45.62996;-94.57;1;2024-09-01
Albany;Missouri;United States;40.24861;-94.33107;1;2024-09-01
Albany;New York;United States;42.65258;-73.75623;1;2024-09-01
Albany;Oregon;United States;44.63651;-123.10593;1;2024-09-01
Albany;Texas;United States;32.72345;-99.2973;1;2024-09-01
Albany;Wisconsin;United States;42.70778;-89.43706;1;2024-09-01
Beijing;Beijing;China;39.9075;116.39723;0;2024-09-01
Ankara;Ankara;Turkey;39.91987;32.85427;2;2024-09-01
Carthage;Tunis Governorate;Tunisia;36.85961;10.32978;0;2024-09-01
Gangneung;Gangwon Province;South Korea;37.75266;128.87239;3;2024-09-01
Sydney;New South Wales;Australia;-33.86785;151.20732;2;2024-09-01
Davis;California;United States;38.54491;-121.74052;0;2024-09-01
Davis;Oklahoma;United States;34.50453;-97.11946;0;2024-09-01
Yinchuan;Ningxia Huizu;China;38.46806;106.27306;1;2024-09-01
Leshan;Sichuan;China;29.56227;103.76386;0;2024-09-01
Beijing;Beijing;China;39.9075;116.39723;0;2024-09-01
Cambridge;Illinois;United States;41.30365;-90.1929;2;2024-09-01
Cambridge;Maryland;United States;38.56317;-76.07883;2;2024-09-01
Cambridge;Massachusetts;United States;42.3751;-71.10561;2;2024-09-01
Cambridge;Minnesota;United States;45.57274;-93.22439;2;2024-09-01
Cambridge;Nebraska;United States;40.28195;-100.16569;2;2024-09-01
Cambridge;New York;United States;43.02813;-73.38122;2;2024-09-01
Cambridge;Ohio;United States;40.03118;-81.58846;2;2024-09-01
Cambridge;Wisconsin;United States;43.00361;-89.0165;2;2024-09-01
Calgary;Alberta;Canada;51.05011;-114.08529;2;2024-09-01
Wenzhou;Zhejiang;China;27.99942;120.66682;3;2024-09-01
Cambridge;Illinois;United States;41.30365;-90.1929;2;2024-09-01
Cambridge;Maryland;United States;38.56317;-76.07883;2;2024-09-01
Cambridge;Massachusetts;United States;42.3751;-71.10561;2;2024-09-01
Cambridge;Minnesota;United States;45.57274;-93.22439;2;2024-09-01
Cambridge;Nebraska;United States;40.28195;-100.16569;2;2024-09-01
Cambridge;New York;United States;43.02813;-73.38122;2;2024-09-01
Cambridge;Ohio;United States;40.03118;-81.58846;2;2024-09-01
Cambridge;Wisconsin;United States;43.00361;-89.0165;2;2024-09-01
Beijing;Beijing;China;39.9075;116.39723;2;2024-09-01
West Lafayette;Indiana;United States;40.42587;-86.90807;0;2024-09-01
West Lafayette;Ohio;United States;40.27535;-81.75096;0;2024-09-01
Dehradun;Uttarakhand;India;30.33;78.06;1;2024-09-01
Kenitra;Kénitra;Morocco;34.26101;-6.5802;1;2024-09-01
Blacksburg;South Carolina;United States;35.12124;-81.51592;6;2024-09-01
Blacksburg;Virginia;United States;37.22957;-80.41394;6;2024-09-01
Kassel;Hesse;Germany;51.31667;9.5;0;2024-09-01
Okinawa;Okinawa Prefecture;Japan;26.33583;127.80139;0;2024-09-01
Amsterdam;North Holland;Netherlands;52.37403;4.88969;0;2024-09-01
Birmingham;Alabama;United States;33.52066;-86.80249;2;2024-09-01
Birmingham;Michigan;United States;42.5467;-83.21132;2;2024-09-01
Delft;South Holland;Netherlands;52.00667;4.35556;0;2024-09-01
Zhengzhou;Henan;China;34.75778;113.64861;1;2024-09-01
Tehran;Tehran Province;Iran;35.69439;51.42151;1;2024-09-01
Dublin;Leinster;Ireland;53.33306;-6.24889;0;2024-09-01
Chengdu;Sichuan;China;30.66667;104.06667;0;2024-09-01
Aachen;North Rhine-Westphalia;Germany;50.77664;6.08342;2;2024-09-01
Espoo;Uusimaa;Finland;60.2052;24.6522;0;2024-09-01
Wellington;Wellington Region;New Zealand;-41.28664;174.77557;0;2024-09-01
Greenville;Alabama;United States;31.8296;-86.61775;0;2024-09-01
Greenville;California;United States;40.13961;-120.95107;0;2024-09-01
Greenville;Delaware;United States;39.779;-75.59826;0;2024-09-01
Greenville;Georgia;United States;33.02874;-84.71298;0;2024-09-01
Greenville;Illinois;United States;38.89227;-89.41314;0;2024-09-01
Greenville;Kentucky;United States;37.20115;-87.17889;0;2024-09-01
Greenville;Maine;United States;45.45949;-69.59061;0;2024-09-01
Greenville;Michigan;United States;43.17753;-85.2528;0;2024-09-01
Greenville;Mississippi;United States;33.40898;-91.05978;0;2024-09-01
Greenville;Missouri;United States;37.12727;-90.45011;0;2024-09-01
Greenville;New Hampshire;United States;42.76731;-71.8123;0;2024-09-01
Greenville;New York;United States;40.99315;-73.81986;0;2024-09-01
Greenville;North Carolina;United States;35.61266;-77.36635;0;2024-09-01
Greenville;Ohio;United States;40.10283;-84.63301;0;2024-09-01
Greenville;Pennsylvania;United States;41.4045;-80.39118;0;2024-09-01
Greenville;Rhode Island;United States;41.87121;-71.55201;0;2024-09-01
Greenville;South Carolina;United States;34.85262;-82.39401;0;2024-09-01
Greenville;Texas;United States;33.13845;-96.11081;0;2024-09-01
West Lafayette;Indiana;United States;40.42587;-86.90807;1;2024-09-01
West Lafayette;Ohio;United States;40.27535;-81.75096;1;2024-09-01
Zhenjiang;Taiwan;China;32.21086;119.45508;0;2024-09-01
Nashville;Arkansas;United States;33.94567;-93.84713;2;2024-09-01
Nashville;Georgia;United States;31.20742;-83.25015;2;2024-09-01
Nashville;Illinois;United States;38.34366;-89.38064;2;2024-09-01
Nashville;Indiana;United States;39.20727;-86.2511;2;2024-09-01
Nashville;Michigan;United States;42.60281;-85.09305;2;2024-09-01
Nashville;North Carolina;United States;35.9746;-77.96554;2;2024-09-01
Nashville;Tennessee;United States;36.16589;-86.78444;2;2024-09-01
Nashville;Wisconsin;United States;45.52274;-89.02484;2;2024-09-01
Salamanca;Léon;Spain;40.96882;-5.66388;0;2024-09-01
Salamanca;Madrid;Spain;40.42972;-3.67975;0;2024-09-01
Coimbra;Coimbra;Portugal;40.20564;-8.41955;0;2024-09-01
Milan;Lombardy;Italy;45.46427;9.18951;0;2024-09-01
Nanchang;Jiangxi;China;28.68396;115.85306;3;2024-09-01
Lima;Lima;Peru;-12.04318;-77.02824;0;2024-09-01
New Delhi;Delhi;India;28.63576;77.22445;0;2024-09-01
Berkeley;California;United States;37.87159;-122.27275;1;2024-09-01
Berkeley;Illinois;United States;41.88892;-87.9034;1;2024-09-01
Berkeley;Missouri;United States;38.7545;-90.33123;1;2024-09-01
Sydney;New South Wales;Australia;-33.86785;151.20732;0;2024-09-01
Sydney;New South Wales;Australia;-33.86785;151.20732;3;2024-09-01
Yogyakarta;DI Yogyakarta;Indonesia;-7.80139;110.36472;1;2024-09-01
Gondar;Amhara Region;Ethiopia;12.6;37.46667;1;2024-09-01
Chapel Hill;North Carolina;United States;35.9132;-79.05584;0;2024-09-01
Chapel Hill;Tennessee;United States;35.62646;-86.69333;0;2024-09-01
Beijing;Beijing;China;39.9075;116.39723;0;2024-09-01
Lausanne;Vaud;Switzerland;46.516;6.63282;1;2024-09-01
Vienna;Vienna;Austria;48.20849;16.37208;2;2024-09-01
Kenitra;Kénitra;Morocco;34.26101;-6.5802;0;2024-09-01
Zhengzhou;Henan;China;34.75778;113.64861;2;2024-09-01
Eindhoven;North Brabant;Netherlands;51.44083;5.47778;0;2024-09-01
Guangzhou;Guangdong;China;23.11667;113.25;1;2024-09-01
London;England;United Kingdom;51.50853;-0.12574;6;2024-09-01
Killybegs;Ulster;Ireland;54.63333;-8.45;4;2024-09-01
Madrid;Madrid;Spain;40.4165;-3.70256;0;2024-09-01
Tokyo;Tokyo;Japan;35.6895;139.69171;0;2024-09-01
Sydney;New South Wales;Australia;-33.86785;151.20732;1;2024-09-01
Nanjing;Taiwan;China;32.06167;118.77778;0;2024-09-01
Pavia;Lombardy;Italy;45.19205;9.15917;2;2024-09-01
Ann Arbor;Michigan;United States;42.27756;-83.74088;0;2024-09-01
La Jolla;California;United States;32.84727;-117.2742;0;2024-09-01
Melbourne;Victoria;Australia;-37.814;144.96332;1;2024-09-01
Trieste;Friuli–Venezia Giulia;Italy;45.64953;13.77678;0;2024-09-01
Greater Noida;Uttar Pradesh;India;28.49615;77.53601;1;2024-09-01
Hohhot;Inner Mongolia;China;40.81056;111.65222;0;2024-09-01
Ithaca;Michigan;United States;43.2917;-84.6075;2;2024-09-01
Ithaca;New York;United States;42.44063;-76.49661;2;2024-09-01
Nanjing;Taiwan;China;32.06167;118.77778;2;2024-09-01
Valhalla;New York;United States;41.07482;-73.77513;1;2024-09-01
Sydney;New South Wales;Australia;-33.86785;151.20732;2;2024-09-01
Changzhou;Taiwan;China;31.77359;119.95401;0;2024-09-01
Indore;Madhya Pradesh;India;22.66667;75.75;0;2024-09-01
Guangzhou;Guangdong;China;23.11667;113.25;0;2024-09-01
Jizan;Jizan;Saudi Arabia;16.88917;42.55111;1;2024-09-01
Beijing;Beijing;China;39.9075;116.39723;3;2024-09-01
Birmingham;England;United Kingdom;52.48142;-1.89983;5;2024-09-01
Sligo;Connacht;Ireland;54.25;-8.66667;1;2024-09-01
Guangzhou;Guangdong;China;23.11667;113.25;7;2024-09-01
Busan;Busan;South Korea;35.10168;129.03004;8;2024-09-01
Changsha;Guizhou;China;28.68778;105.98972;6;2024-09-01
Changsha;Hunan;China;28.19874;112.97087;6;2024-09-01
Madurai;Tamil Nadu;India;9.89;78.03;1;2024-09-01
Fuzhou;Fujian;China;26.06139;119.30611;5;2024-09-01
Dublin;Leinster;Ireland;53.33306;-6.24889;2;2024-09-01
London;England;United Kingdom;51.50853;-0.12574;0;2024-09-01
London;England;United Kingdom;51.50853;-0.12574;6;2024-09-01
Townsville;Queensland;Australia;-19.26639;146.80569;0;2024-09-01
Brussels;Brussels-Capital Region;Belgium;50.85045;4.34878;1;2024-09-01
Embu;Embu;Kenya;-0.53987;37.45743;7;2024-09-01
Kumasi;Ashanti;Ghana;6.68848;-1.62443;2;2024-09-01
Haifa;Haifa District;Israel;32.81841;34.9885;2;2024-09-01
Austin;Arkansas;United States;34.99842;-91.98376;0;2024-09-01
Austin;Indiana;United States;38.75839;-85.80803;0;2024-09-01
Austin;Minnesota;United States;43.66663;-92.97464;0;2024-09-01
Austin;Texas;United States;30.26715;-97.74306;0;2024-09-01
Beijing;Beijing;China;39.9075;116.39723;4;2024-09-01
Trondheim;Trøndelag;Norway;63.42811;10.39687;6;2024-09-01
Qingdao;Shandong;China;36.06488;120.38042;2;2024-09-01
University Park;Florida;United States;25.74649;-80.36755;1;2024-09-01
University Park;Illinois;United States;41.44298;-87.6836;1;2024-09-01
University Park;Maryland;United States;38.97039;-76.94192;1;2024-09-01
University Park;New Mexico;United States;32.28343;-106.75334;1;2024-09-01
University Park;Texas;United States;32.85013;-96.80028;1;2024-09-01
Graz;Styria;Austria;47.06667;15.45;1;2024-09-01
Charlotte;Michigan;United States;42.56365;-84.83582;1;2024-09-01
Charlotte;North Carolina;United States;35.22709;-80.84313;1;2024-09-01
Charlotte;Tennessee;United States;36.17728;-87.33973;1;2024-09-01
Charlotte;Texas;United States;28.86192;-98.70641;1;2024-09-01
Charlotte;Vermont;United States;44.30977;-73.26096;1;2024-09-01
Shenyang;Liaoning;China;41.79222;123.43278;0;2024-09-01
Rio de Janeiro;Rio de Janeiro;Brazil;-22.92008;-43.33069;0;2024-09-01
Beijing;Beijing;China;39.9075;116.39723;1;2024-09-01
Boston;Georgia;United States;30.79186;-83.78989;3;2024-09-01
Boston;Massachusetts;United States;42.35843;-71.05977;3;2024-09-01
Boston;New York;United States;42.62895;-78.73753;3;2024-09-01
Rome;Lazio;Italy;41.89193;12.51133;2;2024-09-01
College Station;Texas;United States;30.62798;-96.33441;3;2024-09-01
Pokhara;Western Region;Nepal;28.26689;83.96851;5;2024-09-01
West Lafayette;Indiana;United States;40.42587;-86.90807;9;2024-09-01
West Lafayette;Ohio;United States;40.27535;-81.75096;9;2024-09-01
Qinhuangdao;Hebei;China;39.93167;119.58833;3;2024-09-01
Bonn;North Rhine-Westphalia;Germany;50.73438;7.09549;0;2024-09-01
Jiangmen;Guangdong;China;22.58333;113.08333;3;2024-09-01
Trondheim;Trøndelag;Norway;63.42811;10.39687;0;2024-09-01
Seoul;Seoul;South Korea;37.566;126.9784;6;2024-09-01
New Haven;Connecticut;United States;41.30815;-72.92816;0;2024-09-01
New Haven;Indiana;United States;41.0706;-85.01441;0;2024-09-01
New Haven;Michigan;United States;42.72948;-82.80131;0;2024-09-01
New Haven;Missouri;United States;38.60838;-91.21904;0;2024-09-01
New Haven;West Virginia;United States;38.98647;-81.97347;0;2024-09-01
Melbourne;Victoria;Australia;-37.814;144.96332;6;2024-09-01
Tehran;Tehran Province;Iran;35.69439;51.42151;0;2024-09-01
Tianjin;Tianjin;China;39.14666667;117.20555556;3;2024-09-01
Delft;South Holland;Netherlands;52.00667;4.35556;5;2024-09-01
Lanzhou;Gansu;China;36.05701;103.83987;1;2024-09-01
Berkeley;California;United States;37.87159;-122.27275;2;2024-09-01
Berkeley;Illinois;United States;41.88892;-87.9034;2;2024-09-01
Berkeley;Missouri;United States;38.7545;-90.33123;2;2024-09-01
Nancy;Grand-Est;France;48.68439;6.18496;5;2024-09-01
Hangzhou;Zhejiang;China;30.29365;120.16142;4;2024-09-01
Hangzhou;Zhejiang;China;30.29365;120.16142;0;2024-09-01
Oxford;England;United Kingdom;51.75222;-1.25596;1;2024-09-01
Qingdao;Shandong;China;36.06488;120.38042;0;2024-09-01
Madison;Alabama;United States;34.69926;-86.74833;2;2024-09-01
Madison;Connecticut;United States;41.27954;-72.59843;2;2024-09-01
Madison;Florida;United States;30.46938;-83.41293;2;2024-09-01
Madison;Georgia;United States;33.59568;-83.46794;2;2024-09-01
Madison;Illinois;United States;38.68255;-90.15705;2;2024-09-01
Madison;Indiana;United States;38.73589;-85.37996;2;2024-09-01
Madison;Maine;United States;44.79756;-69.87978;2;2024-09-01
Madison;Minnesota;United States;45.00968;-96.19588;2;2024-09-01
Madison;Mississippi;United States;32.46181;-90.11536;2;2024-09-01
Madison;Nebraska;United States;41.82834;-97.45505;2;2024-09-01
Madison;New Hampshire;United States;43.89924;-71.1484;2;2024-09-01
Madison;New Jersey;United States;40.75982;-74.4171;2;2024-09-01
Madison;North Carolina;United States;36.38542;-79.95949;2;2024-09-01
Madison;Ohio;United States;41.77116;-81.04982;2;2024-09-01
Madison;South Dakota;United States;44.00608;-97.11395;2;2024-09-01
Madison;Virginia;United States;38.38041;-78.2575;2;2024-09-01
